{"type":"FeatureCollection","features":[{"type":"Feature","geometry":{"type":"Point","coordinates":[16.050964,45.718125000000001]},"properties":{"id":30127,"location_id":"61001","name":"Paketomat Po\u0161ta NSC","place":"Velika Gorica","postal_code":"10410","street":"PO\u0160TANSKA ULICA 9","house_number":null,"type":"PAK","active":true}},{"type":"Feature","geometry":{"type":"Point","coordinates":[15.803442,45.858111000000001]},"properties":{"id":30129,"location_id":"61290","name":"Paketomat Po\u0161ta Zapre\u0161i\u0107","place":"Zapre\u0161i\u0107","postal_code":"10290","street":"ULICA DRAGE \u0160VAJCARA 5","house_number":null,"type":"PAK","active":true}},{"type":"Feature","geometry":{"type":"Point","coordinates":[16.053124,45.720607999999999]},"properties":{"id":30132,"location_id":"61410","name":"Paketomat Lidl Velika Gorica","place":"Velika Gorica","postal_code":"10410","street":"KNEZA LJUDEVITA POSAVSKOG 55","house_number":null,"type":"PAK","active":true}},{"type":"Feature","geometry":{"type":"Point","coordinates":[15.653256000000001,45.673063999999997]},"properties":{"id":30135,"location_id":"61450","name":"Paketomat Po\u0161ta Jastrebarsko","place":"Jastrebarsko","postal_code":"10450","street":"KRALJA TOMISLAVA 2","house_number":null,"type":"PAK","active":true}},{"type":"Feature","geometry":{"type":"Point","coordinates":[15.876391,46.160226000000002]},"properties":{"id":30137,"location_id":"64902","name":"Paketomat INA Krapina","place":"Krapina","postal_code":"49000","street":"ULICA ANTUNA MIHANOVI\u0106A 51","house_number":null,"type":"PAK","active":true}},{"type":"Feature","geometry":{"type":"Point","coordinates":[16.434502999999999,46.391249000000002]},"properties":{"id":30139,"location_id":"64001","name":"Paketomat Po\u0161ta \u010cakovec","place":"\u010cakovec","postal_code":"40000","street":"TOME MASARYKA 28","house_number":null,"type":"PAK","active":true}},{"type":"Feature","geometry":{"type":"Point","coordinates":[16.416072,46.388519000000002]},"properties":{"id":30141,"location_id":"64003","name":"Paketomat Pevex \u010cakovec","place":"\u010cakovec","postal_code":"40000","street":"ULICA GLOBETKA 2","house_number":null,"type":"PAK","active":true}},{"type":"Feature","geometry":{"type":"Point","coordinates":[16.306947999999998,46.317453999999998]},"properties":{"id":30143,"location_id":"64203","name":"Paketomat Supernova Vara\u017edin","place":"Vara\u017edin","postal_code":"42000","street":"OPTUJSKA 171","house_number":null,"type":"PAK","active":true}},{"type":"Feature","geometry":{"type":"Point","coordinates":[16.852713999999999,45.891311000000002]},"properties":{"id":30144,"location_id":"64301","name":"Paketomat Lidl Bjelovar","place":"Bjelovar","postal_code":"43000","street":"SLAVONSKA CESTA 12","house_number":null,"type":"PAK","active":true}},{"type":"Feature","geometry":{"type":"Point","coordinates":[16.360109999999999,45.496572999999998]},"properties":{"id":30146,"location_id":"64401","name":"Paketomat Lidl Sisak","place":"Sisak","postal_code":"44000","street":"ZAGREBA\u010cKA ULICA 49f","house_number":null,"type":"PAK","active":true}},{"type":"Feature","geometry":{"type":"Point","coordinates":[17.685040000000001,45.338026999999997]},"properties":{"id":30147,"location_id":"63401","name":"Paketomat Lidl Po\u017eega","place":"Po\u017eega","postal_code":"34000","street":"INDUSTRIJSKA 16a","house_number":null,"type":"PAK","active":true}},{"type":"Feature","geometry":{"type":"Point","coordinates":[17.381226999999999,45.258865999999998]},"properties":{"id":30150,"location_id":"63501","name":"Paketomat Po\u0161ta N. Gradi\u0161ka","place":"Nova Gradi\u0161ka","postal_code":"35400","street":"TRG KRALJA TOMISLAVA 11","house_number":null,"type":"PAK","active":true}},{"type":"Feature","geometry":{"type":"Point","coordinates":[16.353400000000001,46.289876999999997]},"properties":{"id":30152,"location_id":"64202","name":"Paketomat Lidl Vara\u017edin","place":"Vara\u017edin","postal_code":"42000","street":"GOSPODARSKA 54","house_number":null,"type":"PAK","active":true}},{"type":"Feature","geometry":{"type":"Point","coordinates":[15.550795000000001,45.505291]},"properties":{"id":30154,"location_id":"64704","name":"Paketomat Plodine Karlovac","place":"Karlovac","postal_code":"47000","street":"BANIJA 88","house_number":null,"type":"PAK","active":true}},{"type":"Feature","geometry":{"type":"Point","coordinates":[14.567871999999999,45.034374]},"properties":{"id":30155,"location_id":"65150","name":"Paketomat Lidl Krk","place":"Krk","postal_code":"51500","street":"VR\u0160ANSKA CESTA 18A","house_number":null,"type":"PAK","active":true}},{"type":"Feature","geometry":{"type":"Point","coordinates":[14.385807,45.371569000000001]},"properties":{"id":30157,"location_id":"65120","name":"Paketomat Lidl Vi\u0161kovo","place":"Vi\u0161kovo","postal_code":"51216","street":"FURI\u0106EVO 23","house_number":null,"type":"PAK","active":true}},{"type":"Feature","geometry":{"type":"Point","coordinates":[14.507154,45.335759000000003]},"properties":{"id":30160,"location_id":"65122","name":"Paketomat Lidl Kukuljanovo","place":"Kukuljanovo","postal_code":"51227","street":"KUKULJANOVO 348","house_number":null,"type":"PAK","active":true}},{"type":"Feature","geometry":{"type":"Point","coordinates":[14.484926,45.310609999999997]},"properties":{"id":30162,"location_id":"65104","name":"Paketomat Plodine Kostrena","place":"Kostrena","postal_code":"51000","street":"VRH MARTIN\u0160\u0106ICE 69D","house_number":null,"type":"PAK","active":true}},{"type":"Feature","geometry":{"type":"Point","coordinates":[18.050387000000001,45.173917000000003]},"properties":{"id":30164,"location_id":"63502","name":"Paketomat Lidl Sl. Brod","place":"Slavonski Brod","postal_code":"35000","street":"OSJE\u010cKA ULICA 280c","house_number":null,"type":"PAK","active":true}},{"type":"Feature","geometry":{"type":"Point","coordinates":[13.622107,45.230221999999998]},"properties":{"id":30166,"location_id":"65251","name":"Paketomat Lidl Pore\u010d","place":"Pore\u010d","postal_code":"52440","street":"MATE VLA\u0160I\u0106A 48","house_number":null,"type":"PAK","active":true}},{"type":"Feature","geometry":{"type":"Point","coordinates":[18.636697999999999,45.565851000000002]},"properties":{"id":30168,"location_id":"63104","name":"Paketomat Lidl Osijek","place":"Osijek","postal_code":"31000","street":"JOSIPA JURJA STROSSMAYERA 350","house_number":null,"type":"PAK","active":true}},{"type":"Feature","geometry":{"type":"Point","coordinates":[13.865556,44.862915999999998]},"properties":{"id":30169,"location_id":"65212","name":"Paketomat Lidl Pula","place":"Pula","postal_code":"52100","street":"ULICA PRO\u0160TINSKE BUNE 20","house_number":null,"type":"PAK","active":true}},{"type":"Feature","geometry":{"type":"Point","coordinates":[15.908569999999999,43.708770000000001]},"properties":{"id":30172,"location_id":"62204","name":"Paketomat Plodine \u0160korpikova","place":"\u0160ibenik","postal_code":"22000","street":"VELIMIRA \u0160KORPIKA 16","house_number":null,"type":"PAK","active":true}},{"type":"Feature","geometry":{"type":"Point","coordinates":[15.265029999999999,44.103282999999998]},"properties":{"id":30175,"location_id":"62303","name":"Paketomat Lidl Zadar","place":"Zadar","postal_code":"23000","street":"BENKOVA\u010cKA CESTA 2","house_number":null,"type":"PAK","active":true}},{"type":"Feature","geometry":{"type":"Point","coordinates":[18.973621000000001,45.367978000000001]},"properties":{"id":30177,"location_id":"63202","name":"Paketomat Lidl Vukovar","place":"Vukovar","postal_code":"32000","street":"PRILJEVO 30a","house_number":null,"type":"PAK","active":true}},{"type":"Feature","geometry":{"type":"Point","coordinates":[15.229430000000001,44.140149999999998]},"properties":{"id":30179,"location_id":"62304","name":"Paketomat Plodine Zadar","place":"Zadar","postal_code":"23000","street":"PUT CERODOLA 1","house_number":null,"type":"PAK","active":true}},{"type":"Feature","geometry":{"type":"Point","coordinates":[16.495560000000001,43.522579999999998]},"properties":{"id":30181,"location_id":"62102","name":"Paketomat City Center One Split","place":"Split","postal_code":"21000","street":"VUKOVARSKA 207","house_number":null,"type":"PAK","active":true}},{"type":"Feature","geometry":{"type":"Point","coordinates":[15.237976,44.110674000000003]},"properties":{"id":30184,"location_id":"62305","name":"Paketomat City Galleria","place":"Zadar","postal_code":"23000","street":"POLA\u010cI\u0160\u0106E 4","house_number":null,"type":"PAK","active":true}},{"type":"Feature","geometry":{"type":"Point","coordinates":[16.840788,45.898825000000002]},"properties":{"id":30186,"location_id":"64303","name":"Paketomat Po\u0161ta Bjelovar","place":"Bjelovar","postal_code":"43000","street":"LJUDEVITA GAJA 2","house_number":null,"type":"PAK","active":true}},{"type":"Feature","geometry":{"type":"Point","coordinates":[15.897646,43.731347]},"properties":{"id":30187,"location_id":"62205","name":"Paketomat City Life","place":"\u0160ibenik","postal_code":"22000","street":"ANTE \u0160UPUKA 10","house_number":null,"type":"PAK","active":true}},{"type":"Feature","geometry":{"type":"Point","coordinates":[16.561219999999999,43.379570000000001]},"properties":{"id":30190,"location_id":"62140","name":"Paketomat Lidl Supetar","place":"Supetar","postal_code":"21400","street":"\u017dedno-Drage 15","house_number":null,"type":"PAK","active":true}},{"type":"Feature","geometry":{"type":"Point","coordinates":[13.868596,44.883406000000001]},"properties":{"id":30192,"location_id":"65213","name":"Paketomat Kcentar \u0160ijana","place":"Pula","postal_code":"52100","street":"\u0160IJANSKA CESTA 1","house_number":null,"type":"PAK","active":true}},{"type":"Feature","geometry":{"type":"Point","coordinates":[16.378473,45.494472000000002]},"properties":{"id":30194,"location_id":"64402","name":"Paketomat Supernova Sisak East","place":"Sisak","postal_code":"44000","street":"ULICA IVANA FISTROVI\u0106A 23","house_number":null,"type":"PAK","active":true}},{"type":"Feature","geometry":{"type":"Point","coordinates":[15.54369,45.488317000000002]},"properties":{"id":30196,"location_id":"64702","name":"Paketomat Po\u0161ta Karlovac","place":"Karlovac","postal_code":"47000","street":"IVANA ME\u0160TROVI\u0106A 8","house_number":null,"type":"PAK","active":true}},{"type":"Feature","geometry":{"type":"Point","coordinates":[13.920021,45.232433999999998]},"properties":{"id":30198,"location_id":"65202","name":"Paketomat Petrol Pazin","place":"Pazin","postal_code":"52000","street":"ISTARSKIH NARODNJAKA 25","house_number":null,"type":"PAK","active":true}},{"type":"Feature","geometry":{"type":"Point","coordinates":[16.491337000000001,43.529974000000003]},"properties":{"id":30200,"location_id":"62121","name":"Paketomat Mercator Solin","place":"Solin","postal_code":"21210","street":"MATO\u0160EVA 10","house_number":null,"type":"PAK","active":true}},{"type":"Feature","geometry":{"type":"Point","coordinates":[16.449259000000001,43.521183000000001]},"properties":{"id":30201,"location_id":"62101","name":"Paketomat Po\u0161ta Split","place":"Split","postal_code":"21000","street":"HERCEGOVA\u010cKA 1","house_number":null,"type":"PAK","active":true}},{"type":"Feature","geometry":{"type":"Point","coordinates":[17.392340999999998,45.819400999999999]},"properties":{"id":30203,"location_id":"63302","name":"Paketomat Pevex Virovitica","place":"Virovitica","postal_code":"33000","street":"ULICA OTE HORVATA 4","house_number":null,"type":"PAK","active":true}},{"type":"Feature","geometry":{"type":"Point","coordinates":[15.878693999999999,43.755581999999997]},"properties":{"id":30204,"location_id":"62206","name":"Paketomat Supernova \u0160ibenik","place":"\u0160ibenik","postal_code":"22000","street":"PUT VIDA 6","house_number":null,"type":"PAK","active":true}},{"type":"Feature","geometry":{"type":"Point","coordinates":[15.817506,45.841782000000002]},"properties":{"id":30206,"location_id":"61291","name":"Paketomat Petrol Zapre\u0161i\u0107","place":"Zapre\u0161i\u0107","postal_code":"10290","street":"AVENIJA HRVATSKIH BRANITELJA 4","house_number":null,"type":"PAK","active":true}},{"type":"Feature","geometry":{"type":"Point","coordinates":[15.2262,44.110669999999999]},"properties":{"id":30208,"location_id":"62306","name":"Paketomat Supernova Zadar","place":"Zadar","postal_code":"23000","street":"AKCIJE MASLENICA 1","house_number":null,"type":"PAK","active":true}},{"type":"Feature","geometry":{"type":"Point","coordinates":[18.415627000000001,45.334032999999998]},"properties":{"id":30210,"location_id":"63140","name":"Paketomat Petrol \u0110akovo","place":"\u0110akovo","postal_code":"31400","street":"NIKOLE TESLE 133a","house_number":null,"type":"PAK","active":true}},{"type":"Feature","geometry":{"type":"Point","coordinates":[18.403231999999999,45.215651000000001]},"properties":{"id":30212,"location_id":"63521","name":"Paketomat Petrol Vrpolje","place":"Vrpolje","postal_code":"35214","street":"ULICA HRVATSKIH BRANITELJA 23","house_number":null,"type":"PAK","active":true}},{"type":"Feature","geometry":{"type":"Point","coordinates":[18.422267000000002,45.648612999999997]},"properties":{"id":30214,"location_id":"63155","name":"Paketomat Petrol Valpovo","place":"Valpovo","postal_code":"31550","street":"BIZOVA\u010cKA 6","house_number":null,"type":"PAK","active":true}},{"type":"Feature","geometry":{"type":"Point","coordinates":[15.053488,44.44679]},"properties":{"id":30216,"location_id":"62325","name":"Paketomat Po\u0161ta Pag","place":"Pag","postal_code":"23250","street":"GOLIJA 34","house_number":null,"type":"PAK","active":true}},{"type":"Feature","geometry":{"type":"Point","coordinates":[15.235474,44.869498999999998]},"properties":{"id":30219,"location_id":"65322","name":"Paketomat Po\u0161ta Oto\u010dac","place":"Oto\u010dac","postal_code":"53220","street":"ULICA KRALJA ZVONIMIRA 23","house_number":null,"type":"PAK","active":true}},{"type":"Feature","geometry":{"type":"Point","coordinates":[17.384067000000002,45.831757000000003]},"properties":{"id":30221,"location_id":"63301","name":"Paketomat Po\u0161ta Virovitica","place":"Virovitica","postal_code":"33000","street":"TOMA\u0160A MASARYKA 1","house_number":null,"type":"PAK","active":true}},{"type":"Feature","geometry":{"type":"Point","coordinates":[18.009726000000001,45.163241999999997]},"properties":{"id":30222,"location_id":"63503","name":"Paketomat Po\u0161ta Sl. Brod","place":"Slavonski Brod","postal_code":"35000","street":"TRG HRVATSKOG PROLJE\u0106A 6","house_number":null,"type":"PAK","active":true}},{"type":"Feature","geometry":{"type":"Point","coordinates":[16.436516999999998,43.521650999999999]},"properties":{"id":30224,"location_id":"62104","name":"Paketomat Lukoil Poljud","place":"Split","postal_code":"21000","street":"PUT SUPAVLA 10","house_number":null,"type":"PAK","active":true}},{"type":"Feature","geometry":{"type":"Point","coordinates":[16.355149999999998,45.496777000000002]},"properties":{"id":30226,"location_id":"64403","name":"Paketomat Pevex Sisak","place":"Sisak","postal_code":"44000","street":"ZAGREBA\u010cKA ULICA 47","house_number":null,"type":"PAK","active":true}},{"type":"Feature","geometry":{"type":"Point","coordinates":[18.076373,42.655124999999998]},"properties":{"id":30228,"location_id":"62002","name":"Paketomat Parking Lapad","place":"Dubrovnik","postal_code":"20000","street":"KRALJA TOMISLAVA 7","house_number":null,"type":"PAK","active":true}},{"type":"Feature","geometry":{"type":"Point","coordinates":[18.564131,45.523040999999999]},"properties":{"id":30230,"location_id":"63143","name":"Paketomat Po\u0161ta \u010cepin","place":"\u010cepin","postal_code":"31431","street":"KRALJA ZVONIMIRA 93c","house_number":null,"type":"PAK","active":true}},{"type":"Feature","geometry":{"type":"Point","coordinates":[13.937716999999999,45.239204999999998]},"properties":{"id":30232,"location_id":"65201","name":"Paketomat Po\u0161ta Pazin","place":"Pazin","postal_code":"52000","street":"MATKA BRAJ\u0160E RA\u0160ANA 7a","house_number":null,"type":"PAK","active":true}},{"type":"Feature","geometry":{"type":"Point","coordinates":[18.719552,45.554865999999997]},"properties":{"id":30233,"location_id":"63102","name":"Paketomat Po\u0161ta Osijek centar","place":"Osijek","postal_code":"31000","street":"TRG BANA JOSIPA JELA\u010cI\u0106A 22","house_number":null,"type":"PAK","active":true}},{"type":"Feature","geometry":{"type":"Point","coordinates":[13.522477,45.431766000000003]},"properties":{"id":30235,"location_id":"65247","name":"Paketomat Po\u0161ta Umag","place":"Umag","postal_code":"52470","street":"ULICA 1. SVIBNJA 1","house_number":null,"type":"PAK","active":true}},{"type":"Feature","geometry":{"type":"Point","coordinates":[18.804770000000001,45.289853000000001]},"properties":{"id":30238,"location_id":"63210","name":"Paketomat Po\u0161ta Vinkovci","place":"Vinkovci","postal_code":"32100","street":"MATIJE ANTUNA RELJKOVI\u0106A 7","house_number":null,"type":"PAK","active":true}},{"type":"Feature","geometry":{"type":"Point","coordinates":[17.677790000000002,45.335025000000002]},"properties":{"id":30240,"location_id":"63402","name":"Paketomat Po\u0161ta Po\u017eega","place":"Po\u017eega","postal_code":"34000","street":"KAMENITA VRATA 10","house_number":null,"type":"PAK","active":true}},{"type":"Feature","geometry":{"type":"Point","coordinates":[16.075583999999999,45.802973999999999]},"properties":{"id":30242,"location_id":"61024","name":"Paketomat Petrol Resnik","place":"Zagreb","postal_code":"10040","street":"\u010cULINE\u010cKA CESTA 255","house_number":null,"type":"PAK","active":true}},{"type":"Feature","geometry":{"type":"Point","coordinates":[18.679884999999999,45.546154999999999]},"properties":{"id":30244,"location_id":"63103","name":"Paketomat Po\u0161ta Osijek","place":"Osijek","postal_code":"31000","street":"DRINSKA 4a","house_number":null,"type":"PAK","active":true}},{"type":"Feature","geometry":{"type":"Point","coordinates":[13.60075,45.226520000000001]},"properties":{"id":30245,"location_id":"65244","name":"Paketomat Po\u0161ta Pore\u010d","place":"Pore\u010d","postal_code":"52440","street":"VUKOVARSKA 17","house_number":null,"type":"PAK","active":true}},{"type":"Feature","geometry":{"type":"Point","coordinates":[17.132763000000001,42.957000000000001]},"properties":{"id":30247,"location_id":"62026","name":"Paketomat Parking Kor\u010dula","place":"Kor\u010dula","postal_code":"20260","street":"ULICA ANTE STAR\u010cEVI\u0106A 6","house_number":null,"type":"PAK","active":true}},{"type":"Feature","geometry":{"type":"Point","coordinates":[16.83492,46.145662000000002]},"properties":{"id":30249,"location_id":"64802","name":"Paketomat Supernova Koprivnica","place":"Koprivnica","postal_code":"48000","street":"GOSPODARSKA ULICA 1","house_number":null,"type":"PAK","active":true}},{"type":"Feature","geometry":{"type":"Point","coordinates":[16.777455,45.482990999999998]},"properties":{"id":30251,"location_id":"64432","name":"Paketomat Po\u0161ta Kutina","place":"Kutina","postal_code":"44320","street":"TRG KRALJA TOMISLAVA 19","house_number":null,"type":"PAK","active":true}},{"type":"Feature","geometry":{"type":"Point","coordinates":[15.877039999999999,45.803536999999999]},"properties":{"id":30253,"location_id":"61020","name":"Paketomat Kaufland Jankomir","place":"Zagreb","postal_code":"10090","street":"ULICA ANTUNA \u0160OLJANA 43","house_number":null,"type":"PAK","active":true}},{"type":"Feature","geometry":{"type":"Point","coordinates":[15.874924999999999,45.813870000000001]},"properties":{"id":30255,"location_id":"61016","name":"Paketomat INA Gajnice","place":"Zagreb","postal_code":"10090","street":"ALEJA GRADA BOLONJE 68","house_number":null,"type":"PAK","active":true}},{"type":"Feature","geometry":{"type":"Point","coordinates":[15.241061999999999,44.118192999999998]},"properties":{"id":30257,"location_id":"62308","name":"Paketomat Kaufland Zadar","place":"Zadar","postal_code":"23000","street":"ANDRIJE HEBRANGA 2","house_number":null,"type":"PAK","active":true}},{"type":"Feature","geometry":{"type":"Point","coordinates":[15.955610999999999,45.799838000000001]},"properties":{"id":30260,"location_id":"61018","name":"Paketomat INA Tre\u0161njevka","place":"Zagreb","postal_code":"10110","street":"NOVA CESTA 102","house_number":null,"type":"PAK","active":true}},{"type":"Feature","geometry":{"type":"Point","coordinates":[18.797691,45.278502000000003]},"properties":{"id":30262,"location_id":"63211","name":"Paketomat INA Vinkovci","place":"Vinkovci","postal_code":"32100","street":"HANSA DIETRICHA GENSCHERA 24","house_number":null,"type":"PAK","active":true}},{"type":"Feature","geometry":{"type":"Point","coordinates":[18.708656999999999,45.543838999999998]},"properties":{"id":30264,"location_id":"63105","name":"Paketomat INA Osijek","place":"Osijek","postal_code":"31000","street":"KRALJA PETRA SVA\u010cI\u0106A 65","house_number":null,"type":"PAK","active":true}},{"type":"Feature","geometry":{"type":"Point","coordinates":[18.096433999999999,45.498866999999997]},"properties":{"id":30265,"location_id":"63150","name":"Paketomat Plodine Na\u0161ice","place":"Na\u0161ice","postal_code":"31500","street":"KRALJA PETRA KRE\u0160IMIRA IV 4b","house_number":null,"type":"PAK","active":true}},{"type":"Feature","geometry":{"type":"Point","coordinates":[15.917488000000001,45.987782000000003]},"properties":{"id":30267,"location_id":"64924","name":"Paketomat Petrol Veliko Trgovi\u0161\u0107e","place":"Oroslavje","postal_code":"49243","street":"STUBI\u010cKA CESTA 2","house_number":null,"type":"PAK","active":true}},{"type":"Feature","geometry":{"type":"Point","coordinates":[16.365953999999999,45.443019999999997]},"properties":{"id":30269,"location_id":"64425","name":"Paketomat Petrol Sisak Mo\u0161\u0107enica","place":"Mo\u0161\u0107enica","postal_code":"44253","street":"ANTE STAR\u010cEVI\u0106A 153","house_number":null,"type":"PAK","active":true}},{"type":"Feature","geometry":{"type":"Point","coordinates":[15.780454000000001,43.762498000000001]},"properties":{"id":30272,"location_id":"62221","name":"Paketomat INA Vodice","place":"Vodice","postal_code":"22211","street":"MAGISTRALA 21","house_number":null,"type":"PAK","active":true}},{"type":"Feature","geometry":{"type":"Point","coordinates":[14.114388999999999,45.101146999999997]},"properties":{"id":30273,"location_id":"65222","name":"Paketomat INA Labin","place":"Labin","postal_code":"52220","street":"ZELENICE 43","house_number":null,"type":"PAK","active":true}},{"type":"Feature","geometry":{"type":"Point","coordinates":[14.41995,45.349378999999999]},"properties":{"id":30275,"location_id":"65105","name":"Paketomat INA \u0160kurinje","place":"Rijeka","postal_code":"51000","street":"OSJE\u010cKA 74b","house_number":null,"type":"PAK","active":true}},{"type":"Feature","geometry":{"type":"Point","coordinates":[16.683481,43.443029000000003]},"properties":{"id":30277,"location_id":"62131","name":"Paketomat INA Omi\u0161","place":"Omi\u0161","postal_code":"21310","street":"VUKOVARSKA 5","house_number":null,"type":"PAK","active":true}},{"type":"Feature","geometry":{"type":"Point","coordinates":[15.379490000000001,44.554661000000003]},"properties":{"id":30280,"location_id":"65302","name":"Paketomat INA Gospi\u0107","place":"Gospi\u0107","postal_code":"53000","street":"BUDA\u010cKA 81","house_number":null,"type":"PAK","active":true}},{"type":"Feature","geometry":{"type":"Point","coordinates":[16.303830999999999,43.549289999999999]},"properties":{"id":30282,"location_id":"62123","name":"Paketomat Petrol Ka\u0161tela","place":"Ka\u0161tel \u0160tafili\u0107","postal_code":"21217","street":"CESTA PAPE IVANA PAVLA II 321","house_number":null,"type":"PAK","active":true}},{"type":"Feature","geometry":{"type":"Point","coordinates":[16.488285000000001,43.510781000000001]},"properties":{"id":30285,"location_id":"62106","name":"Paketomat INA Visoka sjever","place":"Split","postal_code":"21000","street":"KRALJA DR\u017dISLAVA 5A","house_number":null,"type":"PAK","active":true}},{"type":"Feature","geometry":{"type":"Point","coordinates":[18.003899000000001,45.166494]},"properties":{"id":30286,"location_id":"63506","name":"Paketomat Petrol Sl. Brod","place":"Slavonski Brod","postal_code":"35000","street":"VINOGRADSKA CESTA 2a","house_number":null,"type":"PAK","active":true}},{"type":"Feature","geometry":{"type":"Point","coordinates":[15.259548000000001,44.115450000000003]},"properties":{"id":30289,"location_id":"62307","name":"Paketomat INA Zadar","place":"Zadar","postal_code":"23000","street":"ZAGREBA\u010cKA 38","house_number":null,"type":"PAK","active":true}},{"type":"Feature","geometry":{"type":"Point","coordinates":[16.816547,46.163249]},"properties":{"id":30290,"location_id":"64803","name":"Paketomat INA Koprivnica","place":"Koprivnica","postal_code":"48000","street":"KOLODVORSKA 33","house_number":null,"type":"PAK","active":true}},{"type":"Feature","geometry":{"type":"Point","coordinates":[16.457332999999998,43.512247000000002]},"properties":{"id":30292,"location_id":"62105","name":"Paketomat INA Su\u0107idar","place":"Split","postal_code":"21000","street":"VINKOVA\u010cKA 15","house_number":null,"type":"PAK","active":true}},{"type":"Feature","geometry":{"type":"Point","coordinates":[18.09517,42.648870000000002]},"properties":{"id":30294,"location_id":"62003","name":"Paketomat INA Dubrovnik","place":"Dubrovnik","postal_code":"20000","street":"NAZORA VLADIMIRA 2C","house_number":null,"type":"PAK","active":true}},{"type":"Feature","geometry":{"type":"Point","coordinates":[16.467842999999998,43.520045000000003]},"properties":{"id":30296,"location_id":"62108","name":"Paketomat Kaufland Split","place":"Split","postal_code":"21000","street":"ULICA 114. BRIGADE HRVATSKE VOJSKE 6","house_number":null,"type":"PAK","active":true}},{"type":"Feature","geometry":{"type":"Point","coordinates":[16.555026999999999,43.483786000000002]},"properties":{"id":30298,"location_id":"62109","name":"Paketomat Petri\u0107evo","place":"Podstrana","postal_code":"21312","street":"MILE GOJSALI\u0106 4","house_number":null,"type":"PAK","active":true}},{"type":"Feature","geometry":{"type":"Point","coordinates":[17.060929000000002,46.033774999999999]},"properties":{"id":30300,"location_id":"64835","name":"Paketomat Petrol \u0110ur\u0111evac","place":"\u0110ur\u0111evac","postal_code":"48350","street":"ULICA GRADA VUKOVARA 9","house_number":null,"type":"PAK","active":true}},{"type":"Feature","geometry":{"type":"Point","coordinates":[13.654775000000001,45.080603000000004]},"properties":{"id":30302,"location_id":"65221","name":"Paketomat Kcentar Rovinj","place":"Rovinj","postal_code":"52210","street":"BRA\u0106E BO\u017dI\u0106 4C","house_number":null,"type":"PAK","active":true}},{"type":"Feature","geometry":{"type":"Point","coordinates":[13.823952999999999,44.860760999999997]},"properties":{"id":30304,"location_id":"65216","name":"Paketomat Max City","place":"Pula","postal_code":"52100","street":"ULICA STOJA 14A","house_number":null,"type":"PAK","active":true}},{"type":"Feature","geometry":{"type":"Point","coordinates":[16.768682999999999,45.466783999999997]},"properties":{"id":30307,"location_id":"64433","name":"Paketomat Pevex Kutina","place":"Kutina","postal_code":"44320","street":"Ulica Se\u010devine 1","house_number":null,"type":"PAK","active":true}},{"type":"Feature","geometry":{"type":"Point","coordinates":[13.624560000000001,45.239702999999999]},"properties":{"id":30309,"location_id":"65245","name":"Paketomat Petrol Pore\u010d","place":"Kosino\u017ei\u0107i","postal_code":"52446","street":"KOSINO\u017dI\u0106I 60","house_number":null,"type":"PAK","active":true}},{"type":"Feature","geometry":{"type":"Point","coordinates":[13.853755,44.887968000000001]},"properties":{"id":30311,"location_id":"65214","name":"Paketomat Pevex Pula","place":"Pula","postal_code":"52100","street":"INDUSTRIJSKA 15","house_number":null,"type":"PAK","active":true}},{"type":"Feature","geometry":{"type":"Point","coordinates":[0,0]},"properties":{"id":30313,"location_id":"63505","name":"Paketomat Pevex Sl. Brod","place":"Slavonski Brod","postal_code":"35000","street":"NASELJE SLAVONIJA II 4","house_number":null,"type":"PAK","active":true}},{"type":"Feature","geometry":{"type":"Point","coordinates":[14.413223,45.357689000000001]},"properties":{"id":30315,"location_id":"65106","name":"Paketomat Pevex \u0160kurinje","place":"Rijeka","postal_code":"51000","street":"\u0160KURINJSKA CESTA 9b","house_number":null,"type":"PAK","active":true}},{"type":"Feature","geometry":{"type":"Point","coordinates":[14.509452,45.330984999999998]},"properties":{"id":30317,"location_id":"65123","name":"Paketomat Pevex Kukuljanovo","place":"Kukuljanovo","postal_code":"51227","street":"KUKULJANOVO 361","house_number":null,"type":"PAK","active":true}},{"type":"Feature","geometry":{"type":"Point","coordinates":[15.26332,44.100490000000001]},"properties":{"id":30319,"location_id":"62309","name":"Paketomat Pevex Zadar","place":"Zadar","postal_code":"23000","street":"ULICA 159. BRIGADE 6","house_number":null,"type":"PAK","active":true}},{"type":"Feature","geometry":{"type":"Point","coordinates":[16.31222,46.295940000000002]},"properties":{"id":30321,"location_id":"64205","name":"Paketomat Petrol Vara\u017edin","place":"Vara\u017edin","postal_code":"42000","street":"BRA\u0106E RADI\u0106A 201","house_number":null,"type":"PAK","active":true}},{"type":"Feature","geometry":{"type":"Point","coordinates":[0,0]},"properties":{"id":30322,"location_id":"61025","name":"Paketomat Petrol Slavonska","place":"Zagreb","postal_code":"10000","street":"SLAVONSKA AVENIJA 51","house_number":null,"type":"PAK","active":true}},{"type":"Feature","geometry":{"type":"Point","coordinates":[16.360088999999999,46.288170999999998]},"properties":{"id":30325,"location_id":"64204","name":"Paketomat Pevex Vara\u017edin","place":"Vara\u017edin","postal_code":"42000","street":"GOSPODARSKA 60","house_number":null,"type":"PAK","active":true}},{"type":"Feature","geometry":{"type":"Point","coordinates":[16.235392999999998,45.805200999999997]},"properties":{"id":30327,"location_id":"61370","name":"Paketomat Po\u0161ta D. Selo","place":"Dugo Selo","postal_code":"10370","street":"ULICA JOSIPA ZORI\u0106A 26","house_number":null,"type":"PAK","active":true}},{"type":"Feature","geometry":{"type":"Point","coordinates":[16.050457000000002,45.801251999999998]},"properties":{"id":30329,"location_id":"61002","name":"Paketomat City Center One East","place":"Zagreb","postal_code":"10000","street":"SLAVONSKA AVENIJA 11d","house_number":null,"type":"PAK","active":true}},{"type":"Feature","geometry":{"type":"Point","coordinates":[15.965723000000001,45.803857999999998]},"properties":{"id":30331,"location_id":"61005","name":"Paketomat Studentski centar Savska","place":"Zagreb","postal_code":"10000","street":"SAVSKA CESTA 25","house_number":null,"type":"PAK","active":true}},{"type":"Feature","geometry":{"type":"Point","coordinates":[15.97373,45.812457999999999]},"properties":{"id":30332,"location_id":"61014","name":"Paketomat Supernova Centar Cvjetni","place":"Zagreb","postal_code":"10000","street":"TRG PETRA PRERADOVI\u0106A 6","house_number":null,"type":"PAK","active":true}},{"type":"Feature","geometry":{"type":"Point","coordinates":[15.981042,45.805115999999998]},"properties":{"id":30334,"location_id":"61100","name":"Paketomat Po\u0161ta Branimirova","place":"Zagreb","postal_code":"10000","street":"ULICA KNEZA BRANIMIRA 4","house_number":null,"type":"PAK","active":true}},{"type":"Feature","geometry":{"type":"Point","coordinates":[15.983727999999999,45.759847999999998]},"properties":{"id":30335,"location_id":"61003","name":"Paketomat Lidl Slobo\u0161tina","place":"Zagreb","postal_code":"10010","street":"ORE\u0160KOVI\u0106EVA ULICA 3c","house_number":null,"type":"PAK","active":true}},{"type":"Feature","geometry":{"type":"Point","coordinates":[15.951862,45.772848000000003]},"properties":{"id":30338,"location_id":"61013","name":"Paketomat Lukoil Remetinec","place":"Zagreb","postal_code":"10020","street":"REMETINE\u010cKA CESTA 100a","house_number":null,"type":"PAK","active":true}},{"type":"Feature","geometry":{"type":"Point","coordinates":[16.051819999999999,45.840449999999997]},"properties":{"id":30340,"location_id":"61004","name":"Paketomat Lidl Dubrava","place":"Zagreb","postal_code":"10040","street":"RISNJA\u010cKA ULICA 1","house_number":null,"type":"PAK","active":true}},{"type":"Feature","geometry":{"type":"Point","coordinates":[16.046520000000001,45.836790000000001]},"properties":{"id":30341,"location_id":"61011","name":"Paketomat Supernova Garden Mall","place":"Zagreb","postal_code":"10040","street":"Rudolfa Kolaka 14","house_number":null,"type":"PAK","active":true}},{"type":"Feature","geometry":{"type":"Point","coordinates":[16.056353999999999,45.830137000000001]},"properties":{"id":30344,"location_id":"61017","name":"Paketomat INA Dubrava","place":"Zagreb","postal_code":"10040","street":"DANKOVE\u010cKA ULICA 2","house_number":null,"type":"PAK","active":true}},{"type":"Feature","geometry":{"type":"Point","coordinates":[15.914173,45.800029000000002]},"properties":{"id":30346,"location_id":"61019","name":"Paketomat INA Rude\u0161","place":"Zagreb","postal_code":"10090","street":"ZAGREBA\u010cKA CESTA 203","house_number":null,"type":"PAK","active":true}},{"type":"Feature","geometry":{"type":"Point","coordinates":[15.961294000000001,45.792496999999997]},"properties":{"id":30348,"location_id":"61007","name":"Paketomat Studentski centar Cvjetno","place":"Zagreb","postal_code":"10110","street":"ODRANSKA ULICA 8","house_number":null,"type":"PAK","active":true}},{"type":"Feature","geometry":{"type":"Point","coordinates":[15.947357999999999,45.784936999999999]},"properties":{"id":30350,"location_id":"61008","name":"Paketomat Studentski dom S. Radi\u0107","place":"Zagreb","postal_code":"10110","street":"JARUNSKA ULICA 2","house_number":null,"type":"PAK","active":true}},{"type":"Feature","geometry":{"type":"Point","coordinates":[15.993449999999999,45.803773]},"properties":{"id":30352,"location_id":"61023","name":"Paketomat Autobusni kolodvor Zagreb","place":"Zagreb","postal_code":"10135","street":"AVENIJA MARINA DR\u017dI\u0106A 4","house_number":null,"type":"PAK","active":true}},{"type":"Feature","geometry":{"type":"Point","coordinates":[17.673207999999999,45.711635999999999]},"properties":{"id":30354,"location_id":"63352","name":"Paketomat Petrol Slatina","place":"Slatina","postal_code":"33520","street":"BRA\u0106E RADI\u0106A 237a","house_number":null,"type":"PAK","active":true}},{"type":"Feature","geometry":{"type":"Point","coordinates":[16.393497,45.706490000000002]},"properties":{"id":30356,"location_id":"61031","name":"Paketomat Po\u0161ta Ivani\u0107 Grad","place":"Ivani\u0107-Grad","postal_code":"10310","street":"MOSLAVA\u010cKA 14","house_number":null,"type":"PAK","active":true}},{"type":"Feature","geometry":{"type":"Point","coordinates":[16.016878999999999,45.810321999999999]},"properties":{"id":30359,"location_id":"61036","name":"Paketomat Tr\u017enica Volov\u010dica","place":"Zagreb","postal_code":"10135","street":"TRG VOLOV\u010cICA 1","house_number":null,"type":"PAK","active":true}},{"type":"Feature","geometry":{"type":"Point","coordinates":[15.548627,45.493144000000001]},"properties":{"id":30361,"location_id":"64706","name":"Paketomat Karlov\u010danka","place":"Karlovac","postal_code":"47000","street":"TRG MILANA SUFFLAYA 1","house_number":null,"type":"PAK","active":true}},{"type":"Feature","geometry":{"type":"Point","coordinates":[15.934535,45.812725]},"properties":{"id":30362,"location_id":"61021","name":"Paketomat Pevex \u010crnomerec","place":"Zagreb","postal_code":"10000","street":"PRILAZ BARUNA FILIPOVI\u0106A 42","house_number":null,"type":"PAK","active":true}},{"type":"Feature","geometry":{"type":"Point","coordinates":[16.042607,45.824413999999997]},"properties":{"id":30365,"location_id":"61028","name":"Paketomat Tr\u017enica Dubrava","place":"Zagreb","postal_code":"10040","street":"CERSKA ULICA 1A","house_number":null,"type":"PAK","active":true}},{"type":"Feature","geometry":{"type":"Point","coordinates":[15.964142000000001,45.771988999999998]},"properties":{"id":30367,"location_id":"61035","name":"Paketomat Tr\u017enica Trnsko","place":"Zagreb","postal_code":"10020","street":"TRNSKO 32d","house_number":null,"type":"PAK","active":true}},{"type":"Feature","geometry":{"type":"Point","coordinates":[15.955193,45.774825999999997]},"properties":{"id":30369,"location_id":"61034","name":"Paketomat Tr\u017enica Savski Gaj","place":"Zagreb","postal_code":"10020","street":"PREKRATOVA ULICA 4","house_number":null,"type":"PAK","active":true}},{"type":"Feature","geometry":{"type":"Point","coordinates":[15.937604,45.755374000000003]},"properties":{"id":30371,"location_id":"61026","name":"Paketomat Tr\u017enica Botinec","place":"Zagreb","postal_code":"10020","street":"ULICA BA\u0160\u010cANSKE PLO\u010cE 5","house_number":null,"type":"PAK","active":true}},{"type":"Feature","geometry":{"type":"Point","coordinates":[15.928254000000001,45.789771999999999]},"properties":{"id":30372,"location_id":"61030","name":"Paketomat Tr\u017enica Jarun","place":"Zagreb","postal_code":"10104","street":"PAKO\u0160TANSKA ULICA 5","house_number":null,"type":"PAK","active":true}},{"type":"Feature","geometry":{"type":"Point","coordinates":[18.166053999999999,42.630017000000002]},"properties":{"id":30375,"location_id":"62020","name":"Paketomat Pevex Dubrovnik","place":"\u010ciba\u010da","postal_code":"20207","street":"TOMISLAVA MACANA 12","house_number":null,"type":"PAK","active":true}},{"type":"Feature","geometry":{"type":"Point","coordinates":[15.928333,45.814197999999998]},"properties":{"id":30376,"location_id":"61032","name":"Paketomat Tr\u017enica Kusto\u0161ija","place":"Zagreb","postal_code":"10000","street":"ILICA 298","house_number":null,"type":"PAK","active":true}},{"type":"Feature","geometry":{"type":"Point","coordinates":[16.078009999999999,45.828662999999999]},"properties":{"id":30378,"location_id":"61027","name":"Paketomat Tr\u017enica Dubec","place":"Zagreb","postal_code":"10040","street":"DUBE\u010cKA ULICA 2","house_number":null,"type":"PAK","active":true}},{"type":"Feature","geometry":{"type":"Point","coordinates":[15.872721,45.816947999999996]},"properties":{"id":30380,"location_id":"61029","name":"Paketomat Tr\u017enica Gajnice","place":"Zagreb","postal_code":"10090","street":"GAJNICE 32","house_number":null,"type":"PAK","active":true}},{"type":"Feature","geometry":{"type":"Point","coordinates":[15.883575,45.799332]},"properties":{"id":30382,"location_id":"61038","name":"Paketomat City Center One West","place":"Zagreb","postal_code":"10090","street":"JANKOMIR 33","house_number":null,"type":"PAK","active":true}},{"type":"Feature","geometry":{"type":"Point","coordinates":[16.849475000000002,45.904069999999997]},"properties":{"id":30384,"location_id":"64302","name":"Paketomat Pevex Bjelovar","place":"Bjelovar","postal_code":"43000","street":"ANDRIJA HEBRANG 2b","house_number":null,"type":"PAK","active":true}},{"type":"Feature","geometry":{"type":"Point","coordinates":[15.994204999999999,45.805670999999997]},"properties":{"id":30385,"location_id":"61037","name":"Paketomat Gradska plinara Zagreb","place":"Zagreb","postal_code":"10135","street":"RADNI\u010cKA CESTA 1","house_number":null,"type":"PAK","active":true}},{"type":"Feature","geometry":{"type":"Point","coordinates":[16.013462000000001,45.802317000000002]},"properties":{"id":30387,"location_id":"61039","name":"Paketomat Lidl Svetice","place":"Zagreb","postal_code":"10135","street":"DONJE SVETICE 46","house_number":null,"type":"PAK","active":true}},{"type":"Feature","geometry":{"type":"Point","coordinates":[16.105239999999998,45.813257999999998]},"properties":{"id":30389,"location_id":"61362","name":"Paketomat Lidl Novi Jelkovec","place":"Sesvete","postal_code":"10360","street":"ULICA 144. BRIGADE HRVATSKE VOJSKE 1","house_number":null,"type":"PAK","active":true}},{"type":"Feature","geometry":{"type":"Point","coordinates":[16.155805000000001,45.823365000000003]},"properties":{"id":30391,"location_id":"61361","name":"Paketomat Lidl Sesvete","place":"Sesvetski Kraljevec","postal_code":"10361","street":"KOBILJA\u010cKA CESTA 54","house_number":null,"type":"PAK","active":true}},{"type":"Feature","geometry":{"type":"Point","coordinates":[16.069219,45.828274999999998]},"properties":{"id":30394,"location_id":"61042","name":"Paketomat Lidl Retkovec","place":"Zagreb","postal_code":"10040","street":"ALEJA JAVORA 3","house_number":null,"type":"PAK","active":true}},{"type":"Feature","geometry":{"type":"Point","coordinates":[15.909674000000001,45.800969000000002]},"properties":{"id":30395,"location_id":"61043","name":"Paketomat Lidl Oranice","place":"Zagreb","postal_code":"10090","street":"ORANI\u010cKI ODVOJAK VI 1","house_number":null,"type":"PAK","active":true}},{"type":"Feature","geometry":{"type":"Point","coordinates":[17.219389,45.588594000000001]},"properties":{"id":30397,"location_id":"64351","name":"Paketomat Lidl Daruvar","place":"Daruvar","postal_code":"43500","street":"TRG KRI\u017dNOG PUTA 5","house_number":null,"type":"PAK","active":true}},{"type":"Feature","geometry":{"type":"Point","coordinates":[15.944943,45.792909000000002]},"properties":{"id":30399,"location_id":"61041","name":"Paketomat Lidl Selska","place":"Zagreb","postal_code":"10110","street":"ZADARSKA ULICA 79","house_number":null,"type":"PAK","active":true}},{"type":"Feature","geometry":{"type":"Point","coordinates":[16.447489000000001,46.388283999999999]},"properties":{"id":30401,"location_id":"64004","name":"Paketomat Lidl \u010cakovec","place":"\u010cakovec","postal_code":"40000","street":"STJEPANA RADI\u0106A 31","house_number":null,"type":"PAK","active":true}},{"type":"Feature","geometry":{"type":"Point","coordinates":[16.251027000000001,43.518678000000001]},"properties":{"id":30403,"location_id":"62124","name":"Paketomat Lidl Trogir","place":"Trogir","postal_code":"21220","street":"KNEZA TRPIMIRA 1","house_number":null,"type":"PAK","active":true}},{"type":"Feature","geometry":{"type":"Point","coordinates":[17.439997999999999,43.049553000000003]},"properties":{"id":30404,"location_id":"62034","name":"Paketomat Lidl Plo\u010de","place":"Plo\u010de","postal_code":"20340","street":"CRNA RIKA 7","house_number":null,"type":"PAK","active":true}},{"type":"Feature","geometry":{"type":"Point","coordinates":[15.895293000000001,45.804898999999999]},"properties":{"id":30407,"location_id":"61045","name":"Paketomat Po\u0161ta \u0160pansko","place":"Zagreb","postal_code":"10090","street":"TRG IVANA KUKULJEVI\u0106A 5","house_number":null,"type":"PAK","active":true}},{"type":"Feature","geometry":{"type":"Point","coordinates":[16.202165000000001,44.039476999999998]},"properties":{"id":30408,"location_id":"62230","name":"Paketomat Lidl Knin","place":"Knin","postal_code":"22300","street":"SELJA\u010cKE BUNE 1","house_number":null,"type":"PAK","active":true}},{"type":"Feature","geometry":{"type":"Point","coordinates":[15.994332,45.771425999999998]},"properties":{"id":30410,"location_id":"61044","name":"Paketomat Mamutica","place":"Zagreb","postal_code":"10010","street":"ULICA BO\u017dIDARA MAGOVCA 31","house_number":null,"type":"PAK","active":true}},{"type":"Feature","geometry":{"type":"Point","coordinates":[16.972311000000001,45.344949999999997]},"properties":{"id":30412,"location_id":"64434","name":"Paketomat Lidl Novska","place":"Novska","postal_code":"44330","street":"ZAGREBA\u010cKA ULICA 51","house_number":null,"type":"PAK","active":true}},{"type":"Feature","geometry":{"type":"Point","coordinates":[18.606432000000002,45.771382000000003]},"properties":{"id":30414,"location_id":"63130","name":"Paketomat Lidl Beli Manastir","place":"Beli Manastir","postal_code":"31300","street":"KRALJA TOMISLAVA 48","house_number":null,"type":"PAK","active":true}},{"type":"Feature","geometry":{"type":"Point","coordinates":[18.170625999999999,45.761623999999998]},"properties":{"id":30416,"location_id":"63154","name":"Paketomat Lidl Donji Miholjac","place":"Donji Miholjac","postal_code":"31540","street":"VUKOVARSKA 32","house_number":null,"type":"PAK","active":true}},{"type":"Feature","geometry":{"type":"Point","coordinates":[15.898391,45.808439999999997]},"properties":{"id":30418,"location_id":"61022","name":"Paketomat Po\u0161ta Male\u0161nica","place":"Zagreb","postal_code":"10090","street":"ULICA ANTE TOPI\u0106 MIMARE 39A","house_number":null,"type":"PAK","active":true}},{"type":"Feature","geometry":{"type":"Point","coordinates":[17.647915999999999,43.052998000000002]},"properties":{"id":30419,"location_id":"62035","name":"Paketomat Po\u0161ta Metkovi\u0107","place":"Metkovi\u0107","postal_code":"20350","street":"ANTE STAR\u010cEVI\u0106A 7","house_number":null,"type":"PAK","active":true}},{"type":"Feature","geometry":{"type":"Point","coordinates":[15.910164999999999,46.029417000000002]},"properties":{"id":30422,"location_id":"64921","name":"Paketomat Po\u0161ta Zabok","place":"Zabok","postal_code":"49210","street":"MATIJE GUPCA 19","house_number":null,"type":"PAK","active":true}},{"type":"Feature","geometry":{"type":"Point","coordinates":[16.111892999999998,45.827769000000004]},"properties":{"id":30424,"location_id":"61360","name":"Paketomat Po\u0161ta Sesvete","place":"Sesvete","postal_code":"10360","street":"VARA\u017dDINSKA CESTA 1","house_number":null,"type":"PAK","active":true}},{"type":"Feature","geometry":{"type":"Point","coordinates":[18.801696,45.299700999999999]},"properties":{"id":30426,"location_id":"63212","name":"Paketomat Po\u0161ta Vinkovci 2","place":"Vinkovci","postal_code":"32100","street":"TRG KRALJA TOMISLAVA 2","house_number":null,"type":"PAK","active":true}},{"type":"Feature","geometry":{"type":"Point","coordinates":[15.956807,45.796080000000003]},"properties":{"id":30427,"location_id":"61047","name":"Paketomat SD Dr. Ante Star\u010devi\u0107","place":"Zagreb","postal_code":"10110","street":"ZAGREBA\u010cKA AVENIJA 2","house_number":null,"type":"PAK","active":true}},{"type":"Feature","geometry":{"type":"Point","coordinates":[15.999449,45.821015000000003]},"properties":{"id":30430,"location_id":"61048","name":"Paketomat Studentski dom La\u0161\u0107ina","place":"Zagreb","postal_code":"10000","street":"LA\u0160\u0106INSKA CESTA 32","house_number":null,"type":"PAK","active":true}},{"type":"Feature","geometry":{"type":"Point","coordinates":[15.895158,45.796774999999997]},"properties":{"id":30431,"location_id":"61046","name":"Paketomat Lukoil Pre\u010dko","place":"Zagreb","postal_code":"10110","street":"ZAGREBA\u010cKA AVENIJA 11","house_number":null,"type":"PAK","active":true}},{"type":"Feature","geometry":{"type":"Point","coordinates":[16.095452999999999,45.826891000000003]},"properties":{"id":30433,"location_id":"61364","name":"Paketomat Lukoil Sesvete","place":"Sesvete","postal_code":"10360","street":"ZAGREBA\u010cKA 59","house_number":null,"type":"PAK","active":true}},{"type":"Feature","geometry":{"type":"Point","coordinates":[16.432504000000002,46.508825000000002]},"properties":{"id":30435,"location_id":"64031","name":"Paketomat Mursko Sredi\u0161\u0107e","place":"Mursko Sredi\u0161\u0107e","postal_code":"40315","street":"JOSIPA BROZA TITA 74","house_number":null,"type":"PAK","active":true}},{"type":"Feature","geometry":{"type":"Point","coordinates":[15.71003,45.802585000000001]},"properties":{"id":30437,"location_id":"61430","name":"Paketomat Po\u0161ta Samobor","place":"Samobor","postal_code":"10430","street":"GAJEVA 4","house_number":null,"type":"PAK","active":true}},{"type":"Feature","geometry":{"type":"Point","coordinates":[14.351831000000001,45.370784]},"properties":{"id":30439,"location_id":"65121","name":"Paketomat Kastav Shopping centar","place":"Kastav","postal_code":"51215","street":"\u0160POROVA JAMA 1A","house_number":null,"type":"PAK","active":true}},{"type":"Feature","geometry":{"type":"Point","coordinates":[15.866778999999999,45.814829000000003]},"properties":{"id":30441,"location_id":"61054","name":"Paketomat Lidl Huzjanova","place":"Zagreb","postal_code":"10090","street":"HUZJANOVA ULICA 4","house_number":null,"type":"PAK","active":true}},{"type":"Feature","geometry":{"type":"Point","coordinates":[15.945943,45.771236999999999]},"properties":{"id":30442,"location_id":"61053","name":"Paketomat Lidl Lani\u0161te","place":"Zagreb","postal_code":"10020","street":"ULICA IVE ROBI\u0106A 4","house_number":null,"type":"PAK","active":true}},{"type":"Feature","geometry":{"type":"Point","coordinates":[16.827316,46.164048999999999]},"properties":{"id":30444,"location_id":"64804","name":"Paketomat Lonia Koprivnica","place":"Koprivnica","postal_code":"48000","street":"ANTE STAR\u010cEVI\u0106A 1","house_number":null,"type":"PAK","active":true}},{"type":"Feature","geometry":{"type":"Point","coordinates":[15.715681,45.809747999999999]},"properties":{"id":30447,"location_id":"61056","name":"Paketomat Lidl Samobor","place":"Samobor","postal_code":"10430","street":"ULICA GRADA WIRGESA 20","house_number":null,"type":"PAK","active":true}},{"type":"Feature","geometry":{"type":"Point","coordinates":[16.399449000000001,45.69914]},"properties":{"id":30449,"location_id":"61059","name":"Paketomat Lidl Ivani\u0107 Grad","place":"Ivani\u0107-Grad","postal_code":"10310","street":"MAJDEKOVA 47","house_number":null,"type":"PAK","active":true}},{"type":"Feature","geometry":{"type":"Point","coordinates":[16.057784000000002,45.776209000000001]},"properties":{"id":30451,"location_id":"61055","name":"Paketomat Lidl Radni\u010dka cesta","place":"Zagreb","postal_code":"10135","street":"RADNI\u010cKA CESTA 232","house_number":null,"type":"PAK","active":true}},{"type":"Feature","geometry":{"type":"Point","coordinates":[16.226208,45.805216000000001]},"properties":{"id":30453,"location_id":"61057","name":"Paketomat Lidl Dugo Selo","place":"Dugo Selo","postal_code":"10370","street":"ULICA AN\u0110ELKE I BELIZARA BO\u017dIKOVI\u0106 2","house_number":null,"type":"PAK","active":true}},{"type":"Feature","geometry":{"type":"Point","coordinates":[16.120322000000002,46.229289000000001]},"properties":{"id":30455,"location_id":"64224","name":"Paketomat Lidl Ivanec","place":"Ivanec","postal_code":"42240","street":"ULICA IVANA GORANA KOVA\u010cI\u0106A 18","house_number":null,"type":"PAK","active":true}},{"type":"Feature","geometry":{"type":"Point","coordinates":[16.418689000000001,45.887973000000002]},"properties":{"id":30456,"location_id":"61058","name":"Paketomat Lidl Vrbovec","place":"Vrbovec","postal_code":"10340","street":"ZAGREBA\u010cKA 1","house_number":null,"type":"PAK","active":true}},{"type":"Feature","geometry":{"type":"Point","coordinates":[15.453571,43.942056000000001]},"properties":{"id":30458,"location_id":"62321","name":"Paketomat Bure Centar","place":"Biograd na Moru","postal_code":"23210","street":"ULICA DOKTORA FRANJE TU\u0110MANA 82","house_number":null,"type":"PAK","active":true}},{"type":"Feature","geometry":{"type":"Point","coordinates":[18.412265999999999,45.312952000000003]},"properties":{"id":30461,"location_id":"63141","name":"Paketomat Lidl \u0110akovo","place":"\u0110akovo","postal_code":"31400","street":"BANA JELA\u010cI\u0106A 41","house_number":null,"type":"PAK","active":true}},{"type":"Feature","geometry":{"type":"Point","coordinates":[17.242228000000001,45.150637000000003]},"properties":{"id":30463,"location_id":"63540","name":"Paketomat Lidl Nova Gradi\u0161ka","place":"Nova Gradi\u0161ka","postal_code":"35400","street":"KRALJA PETRA SVA\u010cI\u0106A 1","house_number":null,"type":"PAK","active":true}},{"type":"Feature","geometry":{"type":"Point","coordinates":[16.242077999999999,45.958362999999999]},"properties":{"id":30465,"location_id":"61060","name":"Paketomat Po\u0161ta Sveti Ivan Zelina","place":"Sveti Ivan Zelina","postal_code":"10380","street":"ZAGREBA\u010cKA 5","house_number":null,"type":"PAK","active":true}},{"type":"Feature","geometry":{"type":"Point","coordinates":[16.070547999999999,45.713168000000003]},"properties":{"id":30466,"location_id":"61052","name":"Paketomat Po\u0161ta Velika Gorica","place":"Velika Gorica","postal_code":"10410","street":"KOLARA SLAVKA 15","house_number":null,"type":"PAK","active":true}},{"type":"Feature","geometry":{"type":"Point","coordinates":[15.499257999999999,45.449055999999999]},"properties":{"id":30468,"location_id":"64725","name":"Paketomat Po\u0161ta Duga Resa","place":"Duga Resa","postal_code":"47250","street":"TRG SVETOG JURJA 5","house_number":null,"type":"PAK","active":true}},{"type":"Feature","geometry":{"type":"Point","coordinates":[16.035997999999999,45.806553000000001]},"properties":{"id":30470,"location_id":"61061","name":"Paketomat Kampus Borongaj","place":"Zagreb","postal_code":"10000","street":"BORONGAJSKA CESTA 83","house_number":null,"type":"PAK","active":true}},{"type":"Feature","geometry":{"type":"Point","coordinates":[16.012789999999999,45.751469999999998]},"properties":{"id":30471,"location_id":"61051","name":"Paketomat POS Zapru\u0111e","place":"Zagreb","postal_code":"10010","street":"KARLA METIKO\u0160A 11","house_number":null,"type":"PAK","active":true}},{"type":"Feature","geometry":{"type":"Point","coordinates":[16.283771000000002,45.441617999999998]},"properties":{"id":30473,"location_id":"64426","name":"Paketomat Po\u0161ta Petrinja","place":"Petrinja","postal_code":"44250","street":"ARTURA TURKULINA 48","house_number":null,"type":"PAK","active":true}},{"type":"Feature","geometry":{"type":"Point","coordinates":[15.583970000000001,45.114365999999997]},"properties":{"id":30475,"location_id":"64724","name":"Paketomat Po\u0161ta Slunj","place":"Slunj","postal_code":"47240","street":"TRG DOKTORA FRANJE TU\u0110MANA 10","house_number":null,"type":"PAK","active":true}},{"type":"Feature","geometry":{"type":"Point","coordinates":[16.544775999999999,46.022584999999999]},"properties":{"id":30477,"location_id":"64826","name":"Paketomat Po\u0161ta Kri\u017eevci","place":"Kri\u017eevci","postal_code":"48260","street":"TRG SVETOG FLORIJANA 2","house_number":null,"type":"PAK","active":true}},{"type":"Feature","geometry":{"type":"Point","coordinates":[15.906269,45.797987999999997]},"properties":{"id":30479,"location_id":"61070","name":"Paketomat \u0160etali\u0161te 150. brigade","place":"Zagreb","postal_code":"10090","street":"\u0160ETALI\u0160TE 150 BRIGADE 5","house_number":null,"type":"PAK","active":true}},{"type":"Feature","geometry":{"type":"Point","coordinates":[16.019901000000001,45.799636999999997]},"properties":{"id":30481,"location_id":"61072","name":"Paketomat Lovin\u010di\u0107eva ulica","place":"Zagreb","postal_code":"10000","street":"LOVIN\u010cI\u0106EVA ULICA 3D","house_number":null,"type":"PAK","active":true}},{"type":"Feature","geometry":{"type":"Point","coordinates":[14.459794,45.330838]},"properties":{"id":30483,"location_id":"65109","name":"Paketomat Dvorana Mladosti","place":"Rijeka","postal_code":"51000","street":"TRG VIKTORA BUBNJA 1","house_number":null,"type":"PAK","active":true}},{"type":"Feature","geometry":{"type":"Point","coordinates":[14.38368,45.344625000000001]},"properties":{"id":30484,"location_id":"65108","name":"Paketomat Centar Zamet","place":"Rijeka","postal_code":"51000","street":"TRG RIJE\u010cKIH OLIMPIJACA 1","house_number":null,"type":"PAK","active":true}},{"type":"Feature","geometry":{"type":"Point","coordinates":[14.117087,45.096947]},"properties":{"id":30486,"location_id":"65223","name":"Paketomat Lidl Labin","place":"Labin","postal_code":"52220","street":"ZELENICE 41","house_number":null,"type":"PAK","active":true}},{"type":"Feature","geometry":{"type":"Point","coordinates":[16.614719999999998,45.74794]},"properties":{"id":30488,"location_id":"64324","name":"Paketomat Po\u0161ta \u010cazma","place":"\u010cazma","postal_code":"43240","street":"KRALJA TOMISLAVA 14","house_number":null,"type":"PAK","active":true}},{"type":"Feature","geometry":{"type":"Point","coordinates":[18.666741999999999,45.548454999999997]},"properties":{"id":30490,"location_id":"63109","name":"Paketomat Lidl Osijek Gornji grad","place":"Osijek","postal_code":"31000","street":"SVETOG LEOPOLDA BOGDANA MANDI\u0106A 33","house_number":null,"type":"PAK","active":true}},{"type":"Feature","geometry":{"type":"Point","coordinates":[18.731645,45.552990999999999]},"properties":{"id":30493,"location_id":"63108","name":"Paketomat Lidl Osijek Donji grad","place":"Osijek","postal_code":"31000","street":"ZELENO POLJE 8A","house_number":null,"type":"PAK","active":true}},{"type":"Feature","geometry":{"type":"Point","coordinates":[18.652875999999999,45.560915999999999]},"properties":{"id":30494,"location_id":"63107","name":"Paketomat Po\u0161ta Osijek II","place":"Osijek","postal_code":"31000","street":"LJUDEVITA POSAVSKOG 34","house_number":null,"type":"PAK","active":true}},{"type":"Feature","geometry":{"type":"Point","coordinates":[18.958131000000002,45.375644000000001]},"properties":{"id":30496,"location_id":"63200","name":"Paketomat Po\u0161ta Vukovar - Borovo","place":"Vukovar","postal_code":"32000","street":"HRVATSKOG ZRAKOPLOVSTVA 2","house_number":null,"type":"PAK","active":true}},{"type":"Feature","geometry":{"type":"Point","coordinates":[15.980589999999999,45.795703000000003]},"properties":{"id":30498,"location_id":"61069","name":"Paketomat Trnjanska cesta","place":"Zagreb","postal_code":"10000","street":"TRNJANSKA CESTA 67","house_number":null,"type":"PAK","active":true}},{"type":"Feature","geometry":{"type":"Point","coordinates":[15.896127,45.795217000000001]},"properties":{"id":30501,"location_id":"61062","name":"Paketomat Tavankutska ulica","place":"Zagreb","postal_code":"10104","street":"TAVANKUTSKA ULICA 2a","house_number":null,"type":"PAK","active":true}},{"type":"Feature","geometry":{"type":"Point","coordinates":[16.411297999999999,43.547983000000002]},"properties":{"id":30503,"location_id":"62127","name":"Paketomat Lidl Ka\u0161tel Su\u0107urac","place":"Ka\u0161tel Su\u0107urac","postal_code":"21212","street":"CESTA DOKTORA FRANJE TU\u0110MANA 346","house_number":null,"type":"PAK","active":true}},{"type":"Feature","geometry":{"type":"Point","coordinates":[16.641548,43.695607000000003]},"properties":{"id":30504,"location_id":"62126","name":"Paketomat Lidl Sinj","place":"Sinj","postal_code":"21230","street":"ULICA PAVLA VU\u010cKOVI\u0106A 17","house_number":null,"type":"PAK","active":true}},{"type":"Feature","geometry":{"type":"Point","coordinates":[17.20439,43.439628999999996]},"properties":{"id":30507,"location_id":"62128","name":"Paketomat Lidl Imotski","place":"Glavina Donja","postal_code":"21260","street":"GLAVINA DONJA 346","house_number":null,"type":"PAK","active":true}},{"type":"Feature","geometry":{"type":"Point","coordinates":[16.363009000000002,43.551335999999999]},"properties":{"id":30509,"location_id":"62129","name":"Paketomat Po\u0161ta Ka\u0161tel Luk\u0161i\u0107","place":"Ka\u0161tel Luk\u0161i\u0107","postal_code":"21215","street":"ULICA HRVATSKIH BRANITELJA 4","house_number":null,"type":"PAK","active":true}},{"type":"Feature","geometry":{"type":"Point","coordinates":[16.341681999999999,43.550424999999997]},"properties":{"id":30510,"location_id":"62130","name":"Paketomat Po\u0161ta Ka\u0161tel Stari","place":"Ka\u0161tel Stari","postal_code":"21216","street":"ULICA GRGURA NINSKOG 6","house_number":null,"type":"PAK","active":true}},{"type":"Feature","geometry":{"type":"Point","coordinates":[18.696204999999999,45.075251000000002]},"properties":{"id":30512,"location_id":"63227","name":"Paketomat Po\u0161ta \u017dupanja","place":"\u017dupanja","postal_code":"32270","street":"DOKTORA FRANJE RA\u010cKOG 2b","house_number":null,"type":"PAK","active":true}},{"type":"Feature","geometry":{"type":"Point","coordinates":[15.976753,45.802551000000001]},"properties":{"id":30514,"location_id":"61068","name":"Paketomat Miramarska cesta","place":"Zagreb","postal_code":"10000","street":"MIRAMARSKA CESTA 15C","house_number":null,"type":"PAK","active":true}},{"type":"Feature","geometry":{"type":"Point","coordinates":[13.531215,45.431367000000002]},"properties":{"id":30516,"location_id":"65248","name":"Paketomat Lidl Umag","place":"Umag","postal_code":"52470","street":"ULICA PODUZETNIKA 3","house_number":null,"type":"PAK","active":true}},{"type":"Feature","geometry":{"type":"Point","coordinates":[15.92956,45.801076999999999]},"properties":{"id":30518,"location_id":"61076","name":"Paketomat Voltino","place":"Zagreb","postal_code":"10110","street":"ULICA DRAGUTINA GOLIKA 38","house_number":null,"type":"PAK","active":true}},{"type":"Feature","geometry":{"type":"Point","coordinates":[14.691303,45.172640000000001]},"properties":{"id":30520,"location_id":"65126","name":"Paketomat Po\u0161ta Crikvenica","place":"Crikvenica","postal_code":"51260","street":"IVANA SKOMER\u017dE 2","house_number":null,"type":"PAK","active":true}},{"type":"Feature","geometry":{"type":"Point","coordinates":[15.234305000000001,45.258879]},"properties":{"id":30522,"location_id":"64730","name":"Paketomat Lidl Ogulin","place":"Ogulin","postal_code":"47300","street":"LOMO\u0160\u0106ANSKA CESTA 24","house_number":null,"type":"PAK","active":true}},{"type":"Feature","geometry":{"type":"Point","coordinates":[16.009222999999999,45.814804000000002]},"properties":{"id":30524,"location_id":"61073","name":"Paketomat Po\u0161ta Trg J.F.Kennedya","place":"Zagreb","postal_code":"10000","street":"TRG JOHNA FITZGERALDA KENNEDYA 11","house_number":null,"type":"PAK","active":true}},{"type":"Feature","geometry":{"type":"Point","coordinates":[15.902184999999999,45.813065000000002]},"properties":{"id":30526,"location_id":"61074","name":"Paketomat Po\u0161ta Susedgrad","place":"Zagreb","postal_code":"10090","street":"ILICA 508","house_number":null,"type":"PAK","active":true}},{"type":"Feature","geometry":{"type":"Point","coordinates":[16.49897,43.515810000000002]},"properties":{"id":30528,"location_id":"62111","name":"Paketomat Put Svetog I\u017eidora","place":"Split","postal_code":"21000","street":"PUT SVETOG I\u017dIDORA 1a","house_number":null,"type":"PAK","active":true}},{"type":"Feature","geometry":{"type":"Point","coordinates":[15.313999000000001,44.046461000000001]},"properties":{"id":30530,"location_id":"62320","name":"Paketomat Po\u0161ta Suko\u0161an","place":"Suko\u0161an","postal_code":"23206","street":"HRVATSKIH BRANITELJA 2","house_number":null,"type":"PAK","active":true}},{"type":"Feature","geometry":{"type":"Point","coordinates":[14.86482,44.581710000000001]},"properties":{"id":30532,"location_id":"62329","name":"Paketomat Po\u0161ta Novalja","place":"Novalja","postal_code":"53291","street":"DOMAGOJEVA 1","house_number":null,"type":"PAK","active":true}},{"type":"Feature","geometry":{"type":"Point","coordinates":[15.966879,45.795200000000001]},"properties":{"id":30534,"location_id":"61075","name":"Paketomat  Kninski trg","place":"Zagreb","postal_code":"10000","street":"KNINSKI TRG 7","house_number":null,"type":"PAK","active":true}},{"type":"Feature","geometry":{"type":"Point","coordinates":[15.948107,45.796953000000002]},"properties":{"id":30537,"location_id":"61063","name":"Paketomat Nehajska ulica","place":"Zagreb","postal_code":"10110","street":"NEHAJSKA ULICA 16","house_number":null,"type":"PAK","active":true}},{"type":"Feature","geometry":{"type":"Point","coordinates":[15.24329,44.109817999999997]},"properties":{"id":30538,"location_id":"62310","name":"Paketomat Lidl Zadar Put Murvice","place":"Zadar","postal_code":"23000","street":"PUT MURVICE 18","house_number":null,"type":"PAK","active":true}},{"type":"Feature","geometry":{"type":"Point","coordinates":[16.152025999999999,45.861699000000002]},"properties":{"id":30541,"location_id":"61071","name":"Paketomat Gali\u0107-Benz Soblinec","place":"Soblinec","postal_code":"10360","street":"SOBLINE\u010cKA ULICA 46","house_number":null,"type":"PAK","active":true}},{"type":"Feature","geometry":{"type":"Point","coordinates":[16.341436000000002,46.179985000000002]},"properties":{"id":30542,"location_id":"64222","name":"Paketomat BP Auto - Ivec Novi Marof","place":"Novi Marof","postal_code":"42220","street":"VARA\u017dDINSKA ULICA 120","house_number":null,"type":"PAK","active":true}},{"type":"Feature","geometry":{"type":"Point","coordinates":[15.933838,45.769055000000002]},"properties":{"id":30544,"location_id":"61080","name":"Paketomat Kaufland Jaru\u0161\u010dica","place":"Zagreb","postal_code":"10020","street":"JARU\u0160\u010cICA 6","house_number":null,"type":"PAK","active":true}},{"type":"Feature","geometry":{"type":"Point","coordinates":[15.984920000000001,45.778998000000001]},"properties":{"id":30546,"location_id":"61081","name":"Paketomat Kaufland Sredi\u0161\u0107e","place":"Zagreb","postal_code":"10020","street":"JULIJA KNIFERA 1","house_number":null,"type":"PAK","active":true}},{"type":"Feature","geometry":{"type":"Point","coordinates":[0,0]},"properties":{"id":30549,"location_id":"61082","name":"Paketomat Kaufland Samobor","place":"Samobor","postal_code":"10430","street":"ULICA GRADA WIRGESA 2g","house_number":null,"type":"PAK","active":true}},{"type":"Feature","geometry":{"type":"Point","coordinates":[15.921051,45.805078999999999]},"properties":{"id":30550,"location_id":"61079","name":"Paketomat Kaufland Zagreba\u010dka cesta","place":"Zagreb","postal_code":"10090","street":"ZAGREBA\u010cKA CESTA 136","house_number":null,"type":"PAK","active":true}},{"type":"Feature","geometry":{"type":"Point","coordinates":[0,0]},"properties":{"id":30552,"location_id":"62323","name":"Paketomat Tri Bartola Vir","place":"Vir","postal_code":"23234","street":"VIRSKI PUT 180","house_number":null,"type":"PAK","active":true}},{"type":"Feature","geometry":{"type":"Point","coordinates":[15.61293,44.032139999999998]},"properties":{"id":30555,"location_id":"62342","name":"Paketomat Po\u0161ta Benkovac","place":"Benkovac","postal_code":"23420","street":"ULICA IVANA ME\u0160TROVI\u0106A 14","house_number":null,"type":"PAK","active":true}},{"type":"Feature","geometry":{"type":"Point","coordinates":[15.90563,43.722935999999997]},"properties":{"id":30557,"location_id":"62207","name":"Paketomat Kaufland \u0160ibenik","place":"\u0160ibenik","postal_code":"22000","street":"VUKOVARSKA ULICA 10","house_number":null,"type":"PAK","active":true}},{"type":"Feature","geometry":{"type":"Point","coordinates":[19.001387000000001,45.351464]},"properties":{"id":30559,"location_id":"63203","name":"Paketomat Parking Vukovar","place":"Vukovar","postal_code":"32000","street":"KARDINALA ALOJZIJA STEPINCA 2","house_number":null,"type":"PAK","active":true}},{"type":"Feature","geometry":{"type":"Point","coordinates":[15.97864,45.777037]},"properties":{"id":30561,"location_id":"61084","name":"Paketomat Avenue Mall","place":"Zagreb","postal_code":"10020","street":"AVENIJA DUBROVNIK 16","house_number":null,"type":"PAK","active":true}},{"type":"Feature","geometry":{"type":"Point","coordinates":[15.919798999999999,45.800266000000001]},"properties":{"id":30563,"location_id":"61085","name":"Paketomat Rude\u0161ka cesta","place":"Zagreb","postal_code":"10110","street":"RUDE\u0160KA CESTA 58","house_number":null,"type":"PAK","active":true}},{"type":"Feature","geometry":{"type":"Point","coordinates":[16.066472000000001,45.717396000000001]},"properties":{"id":30566,"location_id":"61083","name":"Paketomat Zagreba\u010dka ulica V.Gorica","place":"Velika Gorica","postal_code":"10410","street":"ZAGREBA\u010cKA 84","house_number":null,"type":"PAK","active":true}},{"type":"Feature","geometry":{"type":"Point","coordinates":[16.004387999999999,45.770285000000001]},"properties":{"id":30568,"location_id":"61089","name":"Paketomat Konzum Travno","place":"Zagreb","postal_code":"10010","street":"SARAJEVSKA CESTA 6","house_number":null,"type":"PAK","active":true}},{"type":"Feature","geometry":{"type":"Point","coordinates":[16.006777,45.802812000000003]},"properties":{"id":30570,"location_id":"61090","name":"Paketomat Konzum Radni\u010dka","place":"Zagreb","postal_code":"10135","street":"RADNI\u010cKA CESTA 49","house_number":null,"type":"PAK","active":true}},{"type":"Feature","geometry":{"type":"Point","coordinates":[15.989806,45.773034000000003]},"properties":{"id":30571,"location_id":"61096","name":"Paketomat Konzum Turinina","place":"Zagreb","postal_code":"10010","street":"TURININA ULICA 11","house_number":null,"type":"PAK","active":true}},{"type":"Feature","geometry":{"type":"Point","coordinates":[15.980381,45.768799999999999]},"properties":{"id":30573,"location_id":"61065","name":"Paketomat Crodux Av.V.Holjevca","place":"Zagreb","postal_code":"10020","street":"AVENIJA VE\u0106ESLAVA HOLJEVCA 30","house_number":null,"type":"PAK","active":true}},{"type":"Feature","geometry":{"type":"Point","coordinates":[15.848528,45.774962000000002]},"properties":{"id":30575,"location_id":"61066","name":"Paketomat Crodux Lu\u010dko","place":"Lu\u010dko","postal_code":"10250","street":"KARLOVA\u010cKA CESTA 221","house_number":null,"type":"PAK","active":true}},{"type":"Feature","geometry":{"type":"Point","coordinates":[15.929542,45.814250000000001]},"properties":{"id":30577,"location_id":"61091","name":"Paketomat Konzum \u010crnomerec","place":"Zagreb","postal_code":"10000","street":"ILICA 288","house_number":null,"type":"PAK","active":true}},{"type":"Feature","geometry":{"type":"Point","coordinates":[15.946895,45.756816999999998]},"properties":{"id":30579,"location_id":"61064","name":"Paketomat Petrol Sisa\u010dka","place":"Zagreb","postal_code":"10020","street":"SISA\u010cKA CESTA 2","house_number":null,"type":"PAK","active":true}},{"type":"Feature","geometry":{"type":"Point","coordinates":[16.117726000000001,45.824266999999999]},"properties":{"id":30581,"location_id":"61093","name":"Paketomat Konzum Sesvete","place":"Sesvete","postal_code":"10360","street":"BJELOVARSKA ULICA 48B","house_number":null,"type":"PAK","active":true}},{"type":"Feature","geometry":{"type":"Point","coordinates":[18.796247000000001,45.294665999999999]},"properties":{"id":30583,"location_id":"63213","name":"Paketomat Patri\u010dar Vinkovci","place":"Vinkovci","postal_code":"32100","street":"ANTUNA BRANKA \u0160IMI\u0106A 18","house_number":null,"type":"PAK","active":true}},{"type":"Feature","geometry":{"type":"Point","coordinates":[15.786681,45.863129999999998]},"properties":{"id":30586,"location_id":"61095","name":"Paketomat Konzum Zapre\u0161i\u0107","place":"\u0160ibice","postal_code":"10290","street":"INDUSTRIJSKA ULICA 1a","house_number":null,"type":"PAK","active":true}},{"type":"Feature","geometry":{"type":"Point","coordinates":[18.882615000000001,45.146630999999999]},"properties":{"id":30587,"location_id":"63225","name":"Paketomat Patri\u010dar Otok","place":"Otok","postal_code":"32252","street":"VLADIMIRA NAZORA 4a","house_number":null,"type":"PAK","active":true}},{"type":"Feature","geometry":{"type":"Point","coordinates":[15.985880999999999,45.862084000000003]},"properties":{"id":30589,"location_id":"61098","name":"Paketomat Meridijan 16","place":"Zagreb","postal_code":"10000","street":"GRA\u010cANSKA CESTA 208","house_number":null,"type":"PAK","active":true}},{"type":"Feature","geometry":{"type":"Point","coordinates":[18.684653000000001,45.288474999999998]},"properties":{"id":30591,"location_id":"63214","name":"Paketomat Patri\u010dar Ivankovo","place":"Ivankovo","postal_code":"32281","street":"TRG BANA JELA\u010cI\u0106A 1","house_number":null,"type":"PAK","active":true}},{"type":"Feature","geometry":{"type":"Point","coordinates":[16.058979999999998,45.711447]},"properties":{"id":30594,"location_id":"61094","name":"Paketomat Konzum Velika Gorica","place":"Velika Gorica","postal_code":"10410","street":"GETALDI\u0106A MARINA 1","house_number":null,"type":"PAK","active":true}},{"type":"Feature","geometry":{"type":"Point","coordinates":[18.595244000000001,45.573312000000001]},"properties":{"id":30597,"location_id":"63110","name":"Paketomat ROX Josipovac","place":"Josipovac","postal_code":"31220","street":"RIBARSKA 1B","house_number":null,"type":"PAK","active":true}},{"type":"Feature","geometry":{"type":"Point","coordinates":[15.883547999999999,45.812373000000001]},"properties":{"id":30599,"location_id":"61092","name":"Paketomat Konzum Samoborska","place":"Zagreb","postal_code":"10090","street":"SAMOBORSKA CESTA 102","house_number":null,"type":"PAK","active":true}},{"type":"Feature","geometry":{"type":"Point","coordinates":[18.468745999999999,45.594949999999997]},"properties":{"id":30601,"location_id":"63156","name":"Paketomat Lotis Bizovac","place":"Bizovac","postal_code":"31550","street":"ZONA MALOG GOSPOD. SAJMI\u0160TE BIZOVAC 5","house_number":null,"type":"PAK","active":true}},{"type":"Feature","geometry":{"type":"Point","coordinates":[16.428194000000001,46.377333]},"properties":{"id":30602,"location_id":"64005","name":"Paketomat Crodux \u010cakovec","place":"\u010cakovec","postal_code":"40000","street":"KALNI\u010cKA 65","house_number":null,"type":"PAK","active":true}},{"type":"Feature","geometry":{"type":"Point","coordinates":[16.599799999999998,46.341056999999999]},"properties":{"id":30604,"location_id":"64032","name":"Paketomat Petrol Prelog","place":"Prelog","postal_code":"40323","street":"\u010cAKOVE\u010cKA 111","house_number":null,"type":"PAK","active":true}},{"type":"Feature","geometry":{"type":"Point","coordinates":[16.015397,45.738298]},"properties":{"id":30606,"location_id":"61101","name":"Paketomat Veliko Polje","place":"Veliko Polje","postal_code":"10010","street":"VELIKOPOLJSKA ULICA 9h","house_number":null,"type":"PAK","active":true}},{"type":"Feature","geometry":{"type":"Point","coordinates":[16.504467000000002,43.506225000000001]},"properties":{"id":30608,"location_id":"62112","name":"Paketomat Konzum Split","place":"Split","postal_code":"21000","street":"KRALJA DR\u017dISLAVA 22","house_number":null,"type":"PAK","active":true}},{"type":"Feature","geometry":{"type":"Point","coordinates":[16.451080000000001,43.512967000000003]},"properties":{"id":30610,"location_id":"62113","name":"Paketomat FINA Split","place":"Split","postal_code":"21000","street":"MA\u017dURANI\u0106EVO \u0160ETALI\u0160TE 24b","house_number":null,"type":"PAK","active":true}},{"type":"Feature","geometry":{"type":"Point","coordinates":[16.449473000000001,43.180943999999997]},"properties":{"id":30612,"location_id":"62145","name":"Paketomat Dolac parking Hvar","place":"Hvar","postal_code":"21450","street":"Vlade Sto\u0161i\u0107a 3","house_number":null,"type":"PAK","active":true}},{"type":"Feature","geometry":{"type":"Point","coordinates":[16.687985000000001,43.161546999999999]},"properties":{"id":30614,"location_id":"62146","name":"Paketomat Parking Jelsa","place":"Jelsa","postal_code":"21465","street":"JELSA 347","house_number":null,"type":"PAK","active":true}},{"type":"Feature","geometry":{"type":"Point","coordinates":[15.90354,45.804326000000003]},"properties":{"id":30616,"location_id":"61118","name":"Paketomat Sara trgovina \u0160pansko","place":"Zagreb","postal_code":"10090","street":"ULICA MATIJE DIVKOVI\u0106A 19a","house_number":null,"type":"PAK","active":true}},{"type":"Feature","geometry":{"type":"Point","coordinates":[16.472041999999998,43.513351999999998]},"properties":{"id":30618,"location_id":"62115","name":"Paketomat Velebitska ulica Split","place":"Split","postal_code":"21000","street":"VELEBITSKA 125","house_number":null,"type":"PAK","active":true}},{"type":"Feature","geometry":{"type":"Point","coordinates":[16.384886000000002,46.376137]},"properties":{"id":30620,"location_id":"64006","name":"Paketomat Op\u0107ina Nedeli\u0161\u0107e","place":"Nedeli\u0161\u0107e","postal_code":"40305","street":"MAR\u0160ALA TITA 58","house_number":null,"type":"PAK","active":true}},{"type":"Feature","geometry":{"type":"Point","coordinates":[15.7882,45.789499999999997]},"properties":{"id":30622,"location_id":"61103","name":"Paketomat Lidl Sveta Nedelja","place":"Novaki Samoborski","postal_code":"10431","street":"VOJVODI\u0106I 1","house_number":null,"type":"PAK","active":true}},{"type":"Feature","geometry":{"type":"Point","coordinates":[15.904166999999999,46.030715000000001]},"properties":{"id":30623,"location_id":"64922","name":"Paketomat Lidl Zabok","place":"Zabok","postal_code":"49210","street":"JOSIPA BROZA 17","house_number":null,"type":"PAK","active":true}},{"type":"Feature","geometry":{"type":"Point","coordinates":[17.706928000000001,45.699334999999998]},"properties":{"id":30626,"location_id":"63353","name":"Paketomat Lidl Slatina","place":"Slatina","postal_code":"33520","street":"KRALJA ZVONIMIRA 14","house_number":null,"type":"PAK","active":true}},{"type":"Feature","geometry":{"type":"Point","coordinates":[16.030366000000001,45.822304000000003]},"properties":{"id":30628,"location_id":"61104","name":"Paketomat INA Maksimirska","place":"Zagreb","postal_code":"10163","street":"MAKSIMIRSKA CESTA 150","house_number":null,"type":"PAK","active":true}},{"type":"Feature","geometry":{"type":"Point","coordinates":[15.97297,45.800291000000001]},"properties":{"id":30630,"location_id":"61088","name":"Paketomat Holding Vukovarska ulica","place":"Zagreb","postal_code":"10000","street":"ULICA GRADA VUKOVARA 41","house_number":null,"type":"PAK","active":true}},{"type":"Feature","geometry":{"type":"Point","coordinates":[18.014165999999999,45.15493]},"properties":{"id":30632,"location_id":"63507","name":"Paketomat FINA Slavonski Brod","place":"Slavonski Brod","postal_code":"35000","street":"PETRA KRE\u0160IMIRA IV 20","house_number":null,"type":"PAK","active":true}},{"type":"Feature","geometry":{"type":"Point","coordinates":[15.983449,45.800724000000002]},"properties":{"id":30634,"location_id":"61106","name":"Paketomat INA Vukovarska","place":"Zagreb","postal_code":"10000","street":"ULICA GRADA VUKOVARA 45","house_number":null,"type":"PAK","active":true}},{"type":"Feature","geometry":{"type":"Point","coordinates":[16.013210000000001,45.819431000000002]},"properties":{"id":30636,"location_id":"61105","name":"Paketomat INA Bukova\u010dka","place":"Zagreb","postal_code":"10108","street":"BUKOVA\u010cKA CESTA 2","house_number":null,"type":"PAK","active":true}},{"type":"Feature","geometry":{"type":"Point","coordinates":[15.998419,45.77843]},"properties":{"id":30638,"location_id":"61108","name":"Paketomat INA Zapru\u0111e","place":"Zagreb","postal_code":"10020","street":"AVENIJA DUBROVNIK 25","house_number":null,"type":"PAK","active":true}},{"type":"Feature","geometry":{"type":"Point","coordinates":[15.971295,45.776822000000003]},"properties":{"id":30641,"location_id":"61107","name":"Paketomat INA Avenija Dubrovnik","place":"Zagreb","postal_code":"10020","street":"SIGET 2","house_number":null,"type":"PAK","active":true}},{"type":"Feature","geometry":{"type":"Point","coordinates":[16.454775000000001,43.520392000000001]},"properties":{"id":30643,"location_id":"62147","name":"Paketomat INA Kman sjever","place":"Split","postal_code":"21000","street":"DOMOVINSKOG RATA 71","house_number":null,"type":"PAK","active":true}},{"type":"Feature","geometry":{"type":"Point","coordinates":[17.024063999999999,43.289605000000002]},"properties":{"id":30645,"location_id":"62116","name":"Paketomat Lidl Makarska","place":"Makarska","postal_code":"21300","street":"ULICA EUROPSKE ZAJEDNICE 2","house_number":null,"type":"PAK","active":true}},{"type":"Feature","geometry":{"type":"Point","coordinates":[15.771371,43.768272000000003]},"properties":{"id":30648,"location_id":"62208","name":"Paketomat Lidl Vodice","place":"Vodice","postal_code":"22211","street":"PUT GA\u0106ELEZA 3A","house_number":null,"type":"PAK","active":true}},{"type":"Feature","geometry":{"type":"Point","coordinates":[15.236886,44.124468999999998]},"properties":{"id":30649,"location_id":"62311","name":"Paketomat Lidl Zadar II","place":"Zadar","postal_code":"23000","street":"BENKA BENKOVI\u0106A 17","house_number":null,"type":"PAK","active":true}},{"type":"Feature","geometry":{"type":"Point","coordinates":[15.181364,44.239851000000002]},"properties":{"id":30652,"location_id":"62330","name":"Paketomat Po\u0161ta Nin","place":"Nin","postal_code":"23232","street":"ZADARSKA ULICA 5","house_number":null,"type":"PAK","active":true}},{"type":"Feature","geometry":{"type":"Point","coordinates":[15.91757,45.795775999999996]},"properties":{"id":30654,"location_id":"61113","name":"Paketomat INA Zagreba\u010dka sjever","place":"Zagreb","postal_code":"10110","street":"ZAGREBA\u010cKA AVENIJA 90","house_number":null,"type":"PAK","active":true}},{"type":"Feature","geometry":{"type":"Point","coordinates":[18.110104,42.640421000000003]},"properties":{"id":30656,"location_id":"62000","name":"Paketomat Grad Dubrovnik","place":"Dubrovnik","postal_code":"20000","street":"GUNDULI\u0106EVA POLJANA 10","house_number":null,"type":"PAK","active":true}},{"type":"Feature","geometry":{"type":"Point","coordinates":[15.943269000000001,45.799694000000002]},"properties":{"id":30657,"location_id":"61110","name":"Paketomat INA Selska","place":"Zagreb","postal_code":"10110","street":"SELSKA CESTA 131","house_number":null,"type":"PAK","active":true}},{"type":"Feature","geometry":{"type":"Point","coordinates":[15.910284000000001,45.798974000000001]},"properties":{"id":30659,"location_id":"61117","name":"Paketomat Pavlenski put","place":"Zagreb","postal_code":"10090","street":"PAVLENSKI PUT 5o","house_number":null,"type":"PAK","active":true}},{"type":"Feature","geometry":{"type":"Point","coordinates":[15.959464000000001,45.804046]},"properties":{"id":30661,"location_id":"61112","name":"Paketomat INA Kranj\u010devi\u0107eva","place":"Zagreb","postal_code":"10110","street":"ULICA SILV. STRAHIMIRA KRANJ\u010cEVI\u0106A 6","house_number":null,"type":"PAK","active":true}},{"type":"Feature","geometry":{"type":"Point","coordinates":[15.978636,45.835298000000002]},"properties":{"id":30664,"location_id":"61109","name":"Paketomat INA Ksaver","place":"Zagreb","postal_code":"10000","street":"KSAVERSKA CESTA 2a","house_number":null,"type":"PAK","active":true}},{"type":"Feature","geometry":{"type":"Point","coordinates":[16.183994999999999,43.062907000000003]},"properties":{"id":30666,"location_id":"62148","name":"Paketomat Sportski centar Vis","place":"Vis","postal_code":"21480","street":"VUKOVARSKA 75","house_number":null,"type":"PAK","active":true}},{"type":"Feature","geometry":{"type":"Point","coordinates":[15.987734,45.765030000000003]},"properties":{"id":30668,"location_id":"61099","name":"Paketomat Po\u0161ta Slobo\u0161tina","place":"Zagreb","postal_code":"10010","street":"ULICA VLADIMIRA VARI\u0106AKA 13","house_number":null,"type":"PAK","active":true}},{"type":"Feature","geometry":{"type":"Point","coordinates":[18.166986999999999,42.631070000000001]},"properties":{"id":30669,"location_id":"62022","name":"Paketomat Lidl Dubrovnik","place":"\u010ciba\u010da","postal_code":"20207","street":"TOMISLAVA MACANA 7","house_number":null,"type":"PAK","active":true}},{"type":"Feature","geometry":{"type":"Point","coordinates":[18.027744999999999,45.153170000000003]},"properties":{"id":30671,"location_id":"63508","name":"Paketomat INA Slavonski Brod","place":"Slavonski Brod","postal_code":"35000","street":"JOSIPA JURAJA STROSSMAYERA 57","house_number":null,"type":"PAK","active":true}},{"type":"Feature","geometry":{"type":"Point","coordinates":[14.47283,45.316524000000001]},"properties":{"id":30674,"location_id":"65111","name":"Paketomat Lidl Rijeka Pe\u0107ine","place":"Rijeka","postal_code":"51000","street":"RADNI\u010cKA 35","house_number":null,"type":"PAK","active":true}},{"type":"Feature","geometry":{"type":"Point","coordinates":[14.425386,45.340995999999997]},"properties":{"id":30676,"location_id":"65112","name":"Paketomat Kaufland \u0160kurinje","place":"Rijeka","postal_code":"51000","street":"OSJE\u010cKA 39","house_number":null,"type":"PAK","active":true}},{"type":"Feature","geometry":{"type":"Point","coordinates":[14.398605999999999,45.340716999999998]},"properties":{"id":30678,"location_id":"65113","name":"Paketomat Kaufland Zamet","place":"Rijeka","postal_code":"51000","street":"ZAMETSKA 44","house_number":null,"type":"PAK","active":true}},{"type":"Feature","geometry":{"type":"Point","coordinates":[16.013076000000002,45.808861999999998]},"properties":{"id":30681,"location_id":"61120","name":"Paketomat Kaufland Pe\u0161\u010denica","place":"Zagreb","postal_code":"10135","street":"PLANINSKA ULICA 2F","house_number":null,"type":"PAK","active":true}},{"type":"Feature","geometry":{"type":"Point","coordinates":[18.683907000000001,45.559412000000002]},"properties":{"id":30682,"location_id":"63111","name":"Paketomat Tr\u017enica Osijek","place":"Osijek","postal_code":"31000","street":"TRG LJUDEVITA GAJA 5","house_number":null,"type":"PAK","active":true}},{"type":"Feature","geometry":{"type":"Point","coordinates":[15.996949000000001,45.813051999999999]},"properties":{"id":30684,"location_id":"61086","name":"Paketomat Tr\u017enica Kvatri\u0107","place":"Zagreb","postal_code":"10000","street":"MARTI\u0106EVA ULICA 67","house_number":null,"type":"PAK","active":true}},{"type":"Feature","geometry":{"type":"Point","coordinates":[16.851755000000001,45.903061999999998]},"properties":{"id":30686,"location_id":"64304","name":"Paketomat Kaufland Bjelovar","place":"Bjelovar","postal_code":"43000","street":"VLAHO PALJETAK 4","house_number":null,"type":"PAK","active":true}},{"type":"Feature","geometry":{"type":"Point","coordinates":[16.337295000000001,46.315148000000001]},"properties":{"id":30689,"location_id":"64206","name":"Paketomat Kaufland Vara\u017edin","place":"Vara\u017edin","postal_code":"42000","street":"KOPRIVNI\u010cKA 17","house_number":null,"type":"PAK","active":true}},{"type":"Feature","geometry":{"type":"Point","coordinates":[16.004843999999999,45.801155000000001]},"properties":{"id":30690,"location_id":"61119","name":"Paketomat Tehnika Ul.grada Vukovara","place":"Zagreb","postal_code":"10000","street":"ULICA GRADA VUKOVARA 274","house_number":null,"type":"PAK","active":true}},{"type":"Feature","geometry":{"type":"Point","coordinates":[13.863130999999999,44.878951999999998]},"properties":{"id":30692,"location_id":"65204","name":"Paketomat Kaufland Pula","place":"Pula","postal_code":"52100","street":"ULICA JURJA \u017dAKNA 3","house_number":null,"type":"PAK","active":true}},{"type":"Feature","geometry":{"type":"Point","coordinates":[16.006634999999999,45.827333000000003]},"properties":{"id":30695,"location_id":"61122","name":"Paketomat Kaufland Barutanski jarak","place":"Zagreb","postal_code":"10000","street":"BARUTANSKI JARAK 54","house_number":null,"type":"PAK","active":true}},{"type":"Feature","geometry":{"type":"Point","coordinates":[15.944826000000001,45.812342000000001]},"properties":{"id":30697,"location_id":"61121","name":"Paketomat  Ilica 191D","place":"Zagreb","postal_code":"10109","street":"ILICA 191d","house_number":null,"type":"PAK","active":true}},{"type":"Feature","geometry":{"type":"Point","coordinates":[16.616876999999999,46.252608000000002]},"properties":{"id":30698,"location_id":"64223","name":"Paketomat Ulica Petra Zrinskog","place":"Ludbreg","postal_code":"42230","street":"ULICA PETRA ZRINSKOG 37","house_number":null,"type":"PAK","active":true}},{"type":"Feature","geometry":{"type":"Point","coordinates":[13.655898000000001,45.089382000000001]},"properties":{"id":30700,"location_id":"65224","name":"Paketomat Kaufland Rovinj","place":"Rovinj","postal_code":"52210","street":"SPINE 2","house_number":null,"type":"PAK","active":true}},{"type":"Feature","geometry":{"type":"Point","coordinates":[15.961306,45.783113999999998]},"properties":{"id":30702,"location_id":"61124","name":"Paketomat Kajzerica","place":"Zagreb","postal_code":"10020","street":"PODBRE\u017dJE IX 1","house_number":null,"type":"PAK","active":true}},{"type":"Feature","geometry":{"type":"Point","coordinates":[15.240634,44.105415999999998]},"properties":{"id":30704,"location_id":"62312","name":"Paketomat Ulica Kralja Tvrtka","place":"Zadar","postal_code":"23000","street":"KRALJA TVRTKA 3","house_number":null,"type":"PAK","active":true}},{"type":"Feature","geometry":{"type":"Point","coordinates":[15.754545999999999,46.160181999999999]},"properties":{"id":30706,"location_id":"64918","name":"Paketomat Po\u0161ta Pregrada","place":"Pregrada","postal_code":"49218","street":"ULICA DRAGUTINA KUNOVI\u0106A 22","house_number":null,"type":"PAK","active":true}},{"type":"Feature","geometry":{"type":"Point","coordinates":[16.489514,43.5364]},"properties":{"id":30708,"location_id":"62149","name":"Paketomat Po\u0161ta Solin","place":"Solin","postal_code":"21210","street":"ULICA KRALJA ZVONIMIRA 77","house_number":null,"type":"PAK","active":true}},{"type":"Feature","geometry":{"type":"Point","coordinates":[15.993333,45.794646999999998]},"properties":{"id":30710,"location_id":"61125","name":"Paketomat Gru\u0161ka ulica","place":"Zagreb","postal_code":"10000","street":"GRU\u0160KA ULICA 14","house_number":null,"type":"PAK","active":true}},{"type":"Feature","geometry":{"type":"Point","coordinates":[18.709375999999999,45.544505000000001]},"properties":{"id":30712,"location_id":"63112","name":"Paketomat Kaufland Osijek","place":"Osijek","postal_code":"31000","street":"ULICA JOSIPA REIHL KIRA 40","house_number":null,"type":"PAK","active":true}},{"type":"Feature","geometry":{"type":"Point","coordinates":[15.553502,45.494624000000002]},"properties":{"id":30714,"location_id":"64707","name":"Paketomat Po\u0161ta Karlovac II","place":"Karlovac","postal_code":"47000","street":"IVANA GORANA KOVA\u010cI\u0106A 4","house_number":null,"type":"PAK","active":true}},{"type":"Feature","geometry":{"type":"Point","coordinates":[15.989800000000001,45.797719000000001]},"properties":{"id":30716,"location_id":"61126","name":"Paketomat Kruge","place":"Zagreb","postal_code":"10000","street":"NJIVICE 4B","house_number":null,"type":"PAK","active":true}},{"type":"Feature","geometry":{"type":"Point","coordinates":[15.939655,45.807659999999998]},"properties":{"id":30719,"location_id":"61127","name":"Paketomat Zagorska ulica","place":"Zagreb","postal_code":"10110","street":"ZAGORSKA ULICA 41","house_number":null,"type":"PAK","active":true}},{"type":"Feature","geometry":{"type":"Point","coordinates":[16.457256000000001,46.386543000000003]},"properties":{"id":30721,"location_id":"64007","name":"Paketomat BAT \u010cakovec","place":"\u010cakovec","postal_code":"40000","street":"RUDOLFA STEINERA 2","house_number":null,"type":"PAK","active":true}}]}