{"type":"FeatureCollection","features":[{"type":"Feature","geometry":{"type":"Point","coordinates":[18.795509500000001,45.278829799999997]},"properties":{"id":31192,"location_id":"BO2409","name":"BOSO BR. 2409","place":"VINKOVCI","postal_code":"32100","street":"GENSCHEROVA","house_number":"22","type":"0","active":true}},{"type":"Feature","geometry":{"type":"Point","coordinates":[16.005029199999999,45.817351199999997]},"properties":{"id":31193,"location_id":"IN608","name":"IN608","place":"ZAGREB","postal_code":"10000","street":"MAKSIMIRSKA","house_number":"84","type":"0","active":true}},{"type":"Feature","geometry":{"type":"Point","coordinates":[15.88707542,45.74293608]},"properties":{"id":31194,"location_id":"PP100001","name":"PP100001","place":"HRVATSKI LESKOVAC","postal_code":"10251","street":"ZASTAVNICE 38A","house_number":null,"type":"0","active":true}},{"type":"Feature","geometry":{"type":"Point","coordinates":[15.97939236,45.807398419999998]},"properties":{"id":31195,"location_id":"SD0001","name":"SD0001","place":"ZAGREB","postal_code":"10000","street":"ULICA","house_number":"10","type":"0","active":true}},{"type":"Feature","geometry":{"type":"Point","coordinates":[18.795107999999999,45.298086099999999]},"properties":{"id":31196,"location_id":"BO2411","name":"BOSO BR. 2411","place":"VINKOVCI","postal_code":"32100","street":"J.J. STROSSMAYERA","house_number":"20","type":"0","active":true}},{"type":"Feature","geometry":{"type":"Point","coordinates":[15.8971546,45.753289969999997]},"properties":{"id":31197,"location_id":"ST123","name":"STUDENAC123","place":"HRVATSKI LESKOVAC","postal_code":"10251","street":"ZASTAVNICE 38A","house_number":null,"type":"0","active":true}},{"type":"Feature","geometry":{"type":"Point","coordinates":[15.9656,45.812829999999998]},"properties":{"id":31198,"location_id":"TI930430","name":"TI930430","place":"ZAGREB","postal_code":"10000","street":"ILICA","house_number":"82","type":"0","active":true}},{"type":"Feature","geometry":{"type":"Point","coordinates":[15.9556659,45.792819799999997]},"properties":{"id":31199,"location_id":"TI911900","name":"TI911900","place":"ZAGREB","postal_code":"10000","street":"ODRANSKA","house_number":"1","type":"0","active":true}},{"type":"Feature","geometry":{"type":"Point","coordinates":[15.88707542,45.74293608]},"properties":{"id":31200,"location_id":"PP100002","name":"PP100002","place":"HRVATSKI LESKOVAC","postal_code":"10251","street":"ZASTAVNICE 38A","house_number":null,"type":"0","active":true}},{"type":"Feature","geometry":{"type":"Point","coordinates":[15.896236139999999,45.753526569999998]},"properties":{"id":31201,"location_id":"OEXZG","name":"POSLOVNICA","place":"HRVATSKI LESKOVAC","postal_code":"10251","street":"ZASTAVNICE","house_number":"38","type":"0","active":true}}]}